"Long","Lat","Stn_Name","Clim_ID","Prov","Tm","DwTm","D","Tx","DwTx","Tn","DwTn","S","DwS","S%N","P","DwP","P%N","S_G","Pd","BS","DwBS","BS%","HDD","CDD"
"-123.742","48.935","CHEMAINUS","1011500","BC","2.8","0","NA","10.0","0","-4.0","0","28.2","0","NA","73.1","0","NA","0.0","8","","","NA","470.1","0.0"
"-124.133","48.824","COWICHAN LAKE FORESTRY","1012040","BC","2.4","19","-1.0","9.5","19","-4.5","19","36.6","0","134.0","138.8","0","39.0","12.0","12","","","NA","187.2","0.0"
"-124.052","48.829","LAKE COWICHAN","1012055","BC","2.3","15","-1.2","11.0","15","-11.0","10","3.0","15","NA","55.4","15","NA","","5","","","NA","251.1","0.0"
"-123.225","48.424","DISCOVERY ISLAND","1012475","BC","","","NA","","","0.6","0","","","NA","","","NA","","","","","NA","",""
"-123.728","48.735","DUNCAN KELVIN CREEK","1012573","BC","1.9","0","-1.7","11.5","0","-7.0","0","25.6","0","111.0","70.7","0","28.0","4.0","8","","","NA","500.4","0.0"
"-123.439","48.432","ESQUIMALT HARBOUR","1012710","BC","3.9","0","NA","12.0","0","-2.3","0","","","NA","145.6","0","NA","","9","","","NA","438.6","0.0"
"-123.498","48.872","GANGES MANSELL RD","1013051","BC","3.2","0","NA","12.0","0","-5.5","0","2.0","0","NA","68.0","0","NA","0.0","9","","","NA","459.4","0.0"
"-123.573","48.985","GALIANO NORTH","10130MN","BC","3.2","5","NA","11.0","5","-3.0","5","1.0","5","NA","43.4","5","NA","0.0","6","","","NA","385.4","0.0"
"-123.561","48.374","METCHOSIN","1015105","BC","","","NA","","","","","1.6","0","19.0","199.0","0","118.0","0.0","11","","","NA","",""
"-123.718","48.824","NORTH COWICHAN","1015628","BC","","","NA","","","","","2.0","15","NA","37.6","15","NA","","5","","","NA","",""
"-123.719","48.824","NORTH COWICHAN","1015630","BC","1.3","0","NA","9.5","0","-9.0","0","","","NA","88.0","0","NA","","9","","","NA","519.0","0.0"
"-123.287","48.764","NORTH PENDER ISLAND","1015638","BC","3.6","1","NA","11.5","1","-4.0","1","9.0","1","NA","79.6","1","NA","0.0","11","","","NA","431.9","0.0"
"-124.326","48.591","PORT RENFREW","1016335","BC","1.4","0","-2.7","9.0","0","-5.0","0","29.0","0","246.0","474.6","0","85.0","0.0","17","","","NA","514.3","0.0"
"-123.419","48.622","SAANICHTON CDA","1016940","BC","3.2","1","-1.6","11.5","1","-3.0","0","0.0","0","0.0","70.0","0","48.0","0.0","7","0.0","30.9583333333333333333333333333333333333","NA","444.5","0.0"
"-123.546","48.888","SALTSPRING ST MARY'S L","1016995","BC","2.7","0","-1.6","10.5","0","-4.0","0","3.4","0","34.0","44.6","0","28.0","0.0","10","","","NA","474.1","0.0"
"-123.427","48.598","SAANICHTON MT NEWTON","1016RM0","BC","","","NA","","","","","0.0","26","NA","58.6","26","NA","","5","","","NA","",""
"-123.128","48.775","SATURNA CAPMON","1017098","BC","3.0","1","-1.3","10.9","0","-3.7","0","3.7","0","27.0","73.0","0","57.0","0.0","9","","","NA","448.8","0.0"
"-123.114","48.772","SATURNA CAPMON CS","1017099","BC","3.4","0","NA","11.6","0","-3.9","0","","","NA","88.6","0","NA","","9","","","NA","451.2","0.0"
"-123.045","48.784","SATURNA ISLAND CS","1017101","BC","","","NA","","","-3.1","0","","","NA","72.2","0","NA","","8","","","NA","",""
"-123.626","48.647","SHAWNIGAN LAKE","1017230","BC","2.0","0","-1.5","13.5","0","-8.5","0","27.2","0","134.0","69.8","0","32.0","4.0","10","","","NA","497.1","0.0"
"-123.921","48.377","SHERINGHAM POINT","1017254","BC","5.2","0","NA","10.3","0","-0.3","0","","","NA","53.4","0","NA","","5","","","NA","397.8","0.0"
"-123.640","48.576","SOOKE LAKE NORTH","1017563","BC","","","NA","","","","","27.2","0","134.0","102.0","0","40.0","0.0","9","","","NA","",""
"-123.305","48.457","VICTORIA UNIVERSITY CS","1018598","BC","4.6","0","NA","11.4","0","-4.0","0","","","NA","96.0","0","NA","","8","","","NA","415.7","0.0"
"-123.443","48.476","VICTORIA FRANCIS PARK","1018605","BC","","","NA","","","","","0.0","26","NA","105.1","26","NA","0.0","5","","","NA","",""
"-123.325","48.413","VICTORIA GONZALES CS","1018611","BC","4.4","0","NA","10.3","0","-2.3","0","","","NA","33.2","30","NA","","1","","","NA","420.8","0.0"
"-123.508","48.509","VICTORIA HIGHLAND","1018616","BC","1.5","2","-1.5","8.5","1","-5.5","1","12.0","0","78.0","88.2","0","45.0","0.0","8","","","NA","478.4","0.0"
"-123.426","48.647","VICTORIA INT'L A","1018620","BC","3.4","0","-1.2","12.1","0","-5.9","0","3.0","0","28.0","77.5","0","54.0","0.0","10","85.4","0","121.0","454.0","0.0"
"-123.539","48.340","WILLIAM HEAD","1018935","BC","4.8","2","-0.9","12.5","2","-1.0","2","0.0","2","NA","103.6","2","NA","0.0","11","","","NA","382.4","0.0"
"-123.459","48.534","VICTORIA HARTLAND CS","1018FJ5","BC","2.8","0","NA","11.1","0","-3.9","0","","","NA","121.6","0","NA","","8","","","NA","470.5","0.0"
"-124.160","49.350","BALLENAS ISLAND","1020590","BC","","","NA","","","","","","","NA","38.4","0","NA","","6","","","NA","",""
"-125.095","49.803","BLACK CREEK SE","1020881","BC","1.1","1","NA","10.0","1","-10.0","1","38.0","1","NA","87.1","1","NA","0.0","10","","","NA","507.2","0.0"
"-125.208","49.945","CAMPBELL RIVER SURFSIDE","1021266","BC","","","NA","","","","","1.0","0","8.0","108.2","0","54.0","0.0","14","","","NA","",""
"-125.195","49.998","CAPE MUDGE","1021330","BC","2.9","0","-1.2","8.0","0","-4.0","0","7.0","0","51.0","179.0","0","78.0","0.0","19","","","NA","468.9","0.0"
"-125.433","50.333","CHATHAM POINT","1021480","BC","2.6","0","-1.4","8.0","0","-3.0","0","57.6","0","410.0","184.4","0","62.0","0.0","19","","","NA","476.6","0.0"
"-124.900","49.717","COMOX A","1021830","BC","2.0","0","-1.9","9.7","0","-6.7","0","11.4","0","95.0","55.2","0","32.0","0.0","8","36.4","1","NA","496.3","0.0"
"-124.429","49.306","COOMBS","1021850","BC","0.7","0","-2.1","7.0","0","-9.5","0","7.0","0","52.0","45.8","0","26.0","10.0","12","","","NA","534.9","0.0"
"-124.949","50.071","CORTES ISLAND TIBER BAY","1021960","BC","1.3","0","NA","8.0","0","-7.0","0","7.8","0","NA","107.2","0","NA","0.0","15","","","NA","516.2","0.0"
"-124.999","49.763","COURTENAY GRANTHAM","1021988","BC","1.3","5","NA","8.0","5","-6.0","5","8.0","5","NA","56.8","5","NA","13.0","10","","","NA","433.9","0.0"
"-125.033","49.686","COURTENAY PUNTLEDGE","1021989","BC","1.3","6","NA","10.0","6","-9.0","3","3.9","6","NA","46.3","6","NA","0.0","7","","","NA","417.3","0.0"
"-123.765","48.756","DUNCAN GLENORA","1022571","BC","0.9","0","NA","8.0","0","-9.7","0","24.4","0","NA","74.5","0","NA","16.0","10","","","NA","530.4","0.0"
"-123.800","49.217","ENTRANCE ISLAND CS","1022689","BC","3.9","0","NA","9.2","0","-0.3","0","","","NA","16.0","0","NA","","3","","","NA","438.1","0.0"
"-125.993","50.454","FANNY ISLAND","1022795","BC","3.2","0","NA","8.6","0","-3.4","0","","","NA","165.2","0","NA","","14","","","NA","458.9","0.0"
"-125.203","50.099","HERIOT BAY SE","1023462","BC","1.6","0","NA","6.5","0","-5.5","0","16.4","0","NA","159.2","0","NA","0.0","17","","","NA","509.2","0.0"
"-124.512","49.353","LITTLE QUALICUM HATCHERY","1024638","BC","0.6","15","-2.6","7.5","15","-12.4","15","0.0","15","NA","16.5","15","NA","","3","","","NA","278.3","0.0"
"-125.287","49.747","MT WASHINGTON","1025230","BC","0.1","2","NA","17.1","2","-11.7","1","18.0","25","NA","39.8","2","NA","","8","","","NA","520.5","0.0"
"-123.870","49.054","NANAIMO A","1025370","BC","1.2","11","-2.3","9.5","11","-7.4","11","17.2","1","NA","40.2","1","NA","","9","","","NA","335.6","0.0"
"-127.728","50.976","PINE ISLAND","1026170","BC","4.7","0","-0.8","12.0","0","-1.0","0","6.6","0","175.0","387.0","0","141.0","0.0","20","","","NA","413.4","0.0"
"-127.366","50.680","PORT HARDY A","1026270","BC","2.9","0","-1.3","11.9","0","-4.6","0","14.6","0","118.0","182.3","0","74.0","0.0","17","","","NA","468.0","0.0"
"-124.394","49.337","QUALICUM BEACH AIRPORT","1026562","BC","1.4","0","NA","7.9","0","-7.8","0","","","NA","46.9","0","NA","","7","","","NA","514.7","0.0"
"-124.617","49.394","QUALICUM R FISH RESEARCH","1026565","BC","1.6","0","-2.2","8.5","0","-7.0","0","9.0","0","87.0","62.0","0","29.0","0.0","10","","","NA","506.9","0.0"
"-125.304","50.016","QUINSAM RIVER HATCHERY","1026639","BC","0.9","5","-1.9","7.0","4","-10.0","5","9.0","3","NA","154.4","3","NA","0.0","14","","","NA","444.0","0.0"
"-124.435","49.487","SISTERS ISLAND","1027403","BC","3.8","0","NA","11.3","0","0.5","0","","","NA","","","NA","","","","","NA","440.1","0.0"
"-123.809","49.209","ENTRANCE ISLAND","102BFHH","BC","3.6","0","NA","9.0","0","-2.2","0","0.0","0","NA","62.6","0","NA","0.0","8","","","NA","445.4","0.0"
"-124.977","49.717","COURTENAY MEADOWBROOK","102JR88","BC","1.5","2","-1.4","9.5","2","-6.0","2","11.0","2","NA","67.9","2","NA","0.0","13","","","NA","477.6","0.0"
"-124.982","49.337","ALBERNI ROBERTSON CREEK","1030230","BC","-0.6","1","-2.6","5.0","1","-8.0","1","40.5","1","NA","96.9","1","NA","0.0","11","","","NA","557.1","0.0"
"-125.216","48.786","CAPE BEALE LIGHT","1031316","BC","5.3","0","-0.6","12.0","0","-2.0","0","8.0","0","316.0","372.0","0","87.0","0.0","17","","","NA","395.2","0.0"
"-124.751","48.612","CARMANAH POINT","1031402","BC","","","NA","","","","","7.6","0","96.0","331.2","0","76.0","0.0","16","","","NA","",""
"-126.417","49.800","CONUMA RIVER HATCHERY","1031844","BC","","","NA","","","","","15.5","12","NA","246.2","12","NA","0.0","11","","","NA","",""
"-126.551","49.384","ESTEVAN POINT","1032730","BC","4.1","0","-1.8","9.5","0","-2.5","0","7.0","0","350.0","464.0","0","102.0","0.0","19","0.0","30.9583333333333333333333333333333333333","NA","429.4","0.0"
"-126.543","49.383","ESTEVAN POINT CS","1032731","BC","4.2","4","NA","9.9","4","-2.6","2","","","NA","424.6","6","NA","","13","","","NA","371.9","0.0"
"-126.055","49.779","GOLD RIVER TOWNSITE","1033232","BC","1.4","12","-0.7","9.0","12","-9.0","12","32.0","0","118.0","264.8","0","62.0","33.0","14","","","NA","316.3","0.0"
"-125.923","49.111","LENNARD ISLAND","1034600","BC","","","NA","","","","","14.2","0","412.0","485.2","0","106.0","0.0","18","","","NA","",""
"-126.617","49.600","NOOTKA LIGHTSTATION","1035614","BC","3.9","0","-1.6","11.0","0","-2.5","0","7.0","0","149.0","544.2","0","115.0","0.0","18","","","NA","435.9","0.0"
"-125.097","48.723","PACHENA POINT","1035940","BC","4.1","0","-1.6","10.0","0","-4.5","0","21.6","0","401.0","413.1","0","99.0","0.0","16","","","NA","430.8","0.0"
"-124.752","49.202","PORT ALBERNI COX LAKE","1036208","BC","1.2","4","-1.6","8.0","4","-7.5","4","33.0","4","NA","121.4","4","NA","14.0","10","","","NA","453.3","0.0"
"-127.453","50.386","PORT ALICE","1036240","BC","3.5","2","-1.4","12.0","2","-4.5","2","6.2","2","NA","306.8","2","NA","0.0","16","","","NA","419.7","0.0"
"-127.654","50.533","QUATSINO","1036570","BC","2.3","10","-2.1","8.0","10","-4.0","10","18.0","10","NA","218.2","10","NA","","10","","","NA","330.3","0.0"
"-128.033","50.441","QUATSINO LIGHTSTATION","1036572","BC","5.1","2","-0.9","12.5","2","-1.5","2","10.2","2","NA","232.8","2","NA","0.0","16","","","NA","374.8","0.0"
"-124.926","49.317","PORT ALBERNI (AUT)","1036B06","BC","-0.4","0","NA","6.8","0","-9.7","0","","","NA","139.4","0","NA","","11","","","NA","570.6","0.0"
"-128.908","50.821","SARTINE ISLAND (AUT)","1037090","BC","4.7","1","NA","13.4","1","-1.1","0","","","NA","127.4","10","NA","","12","","","NA","399.7","0.0"
"-127.940","50.112","SOLANDER ISLAND (AUT)","1037553","BC","5.1","0","NA","17.1","0","-0.5","0","","","NA","152.4","2","NA","","13","","","NA","399.9","0.0"
"-126.654","49.932","TAHSIS VILLAGE NORTH","1037899","BC","0.5","10","NA","6.0","10","-7.0","10","13.5","10","NA","381.7","10","NA","","11","","","NA","367.5","0.0"
"-125.773","49.082","TOFINO A","1038205","BC","3.8","12","-1.5","10.3","12","-3.5","12","28.4","0","310.0","582.0","0","120.0","0.0","17","","","NA","269.6","0.0"
"-125.527","48.945","UCLUELET KENNEDY CAMP","1038332","BC","3.9","0","-1.7","13.0","0","-5.0","0","24.0","0","352.0","516.4","0","103.0","0.0","15","","","NA","438.1","0.0"
"-123.421","49.366","BOWEN ISLAND BOWEN BAY","104090R","BC","","","NA","","","","","7.0","12","NA","183.7","12","NA","","12","","","NA","",""
"-123.402","49.360","BOWEN ISLAND SUNSET PARK","104091B","BC","","","NA","","","","","38.0","1","NA","164.2","1","NA","10.0","14","","","NA","",""
"-123.541","49.386","GIBSONS GOWER POINT","1043152","BC","2.6","0","-2.1","8.5","0","-3.5","0","13.0","0","148.0","157.0","0","84.0","0.0","14","","","NA","478.7","0.0"
"-123.853","50.165","MALIBU JERVIS INLET","1044840","BC","1.4","2","-1.7","10.0","2","-4.0","2","136.5","2","NA","249.1","2","NA","0.0","16","","","NA","480.1","0.0"
"-123.913","49.468","MERRY ISLAND LIGHTSTATION","1045100","BC","3.6","2","-1.8","10.0","2","-1.0","2","1.0","2","NA","53.9","2","NA","0.0","8","","","NA","417.7","0.0"
"-123.299","49.488","HOWE SOUND - PAM ROCKS","10459NN","BC","2.2","0","NA","8.6","0","-3.4","0","","","NA","22.0","0","NA","","4","","","NA","489.7","0.0"
"-124.032","49.634","PENDER HARBOUR","1046115","BC","","","NA","","","","","4.8","0","NA","93.0","0","NA","0.0","11","","","NA","",""
"-123.496","49.526","PORT MELLON","1046332","BC","1.3","0","NA","9.2","0","-5.2","0","","","NA","317.5","0","NA","37.0","13","","","NA","518.6","0.0"
"-124.500","49.834","POWELL RIVER A","1046391","BC","1.7","24","-1.8","9.0","24","-5.0","24","12.6","0","93.0","77.6","0","49.0","","10","","","NA","113.9","0.0"
"-124.497","49.835","POWELL RIVER","1046392","BC","1.1","0","NA","9.1","0","-5.9","0","","","NA","66.8","0","NA","","10","","","NA","522.6","0.0"
"-123.715","49.458","SECHELT AUT","1047172","BC","1.7","0","NA","8.6","0","-5.7","0","","","NA","102.2","0","NA","","9","","","NA","504.1","0.0"
"-123.281","49.896","SQUAMISH UPPER","1047672","BC","-1.2","0","-1.8","7.0","0","-14.0","0","105.0","0","157.0","207.2","0","58.0","61.0","14","","","NA","596.1","0.0"
"-123.161","49.783","SQUAMISH AIRPORT","10476F0","BC","0.8","0","NA","10.6","0","-9.3","0","","","NA","178.0","1","NA","24.0","11","","","NA","533.2","0.0"
"-122.955","50.129","WHISTLER","1048898","BC","-2.1","11","0.0","4.0","11","-17.3","11","91.5","1","NA","108.7","1","NA","","11","","","NA","402.0","0.0"
"-131.016","51.936","CAPE ST JAMES CS","1051351","BC","4.4","0","NA","9.3","0","-1.7","0","","","NA","0.0","2","NA","","0","","","NA","420.1","0.0"
"-132.772","53.316","KINDAKUN ROCKS (AUT)","1054222","BC","4.7","1","NA","13.5","1","-1.3","0","","","NA","0.0","16","NA","","0","","","NA","397.9","0.0"
"-133.058","54.255","LANGARA","1054500","BC","3.3","0","-0.7","12.0","0","-2.9","0","31.0","0","156.0","180.9","0","88.0","0.0","18","","","NA","456.8","0.0"
"-133.058","54.255","LANGARA ISLAND RCS","1054503","BC","3.1","1","NA","11.5","1","-2.8","0","","","NA","9.6","24","NA","","3","","","NA","447.5","0.0"
"-131.661","54.159","ROSE SPIT (AUT)","1056869","BC","2.8","0","NA","8.0","0","-3.9","0","","","NA","68.4","18","NA","","6","","","NA","471.0","0.0"
"-131.813","53.254","SANDSPIT A","1057050","BC","2.6","3","-1.4","10.0","3","-6.5","3","19.8","3","NA","96.2","3","NA","5.0","17","","","NA","430.5","0.0"
"-131.813","53.254","SANDSPIT AWOS","1057055","BC","3.1","1","NA","10.4","1","-7.0","0","","","NA","","","NA","","","","","NA","447.4","0.0"
"-132.299","53.764","SEWALL MASSET INLET","105PA91","BC","2.3","5","NA","8.5","5","-8.0","5","26.1","5","NA","119.0","5","NA","4.0","18","","","NA","407.1","0.0"
"-127.864","51.604","ADDENBROKE ISLAND","1060080","BC","3.4","0","-1.2","9.5","0","-3.0","0","35.2","0","271.0","387.0","0","95.0","0.0","18","","","NA","452.1","0.0"
"-128.157","52.185","BELLA BELLA A","1060811","BC","2.4","1","NA","11.8","1","-10.7","0","","","NA","305.5","1","NA","","19","","","NA","469.1","0.0"
"-126.596","52.388","BELLA COOLA A","1060841","BC","-0.1","1","-0.4","10.6","1","-9.9","1","44.0","1","NA","126.4","1","NA","","12","0.0","30.9583333333333333333333333333333333333","NA","544.4","0.0"
"-128.524","52.643","BOAT BLUFF","1060901","BC","3.4","1","-0.1","9.5","1","-3.0","1","34.6","1","NA","527.4","1","NA","0.0","18","","","NA","436.9","0.0"
"-130.638","53.493","BONILLA ISLAND","1060902","BC","4.9","0","-0.1","16.5","0","-3.5","0","13.0","0","149.0","167.2","0","70.0","0.0","17","","","NA","407.6","0.0"
"-130.633","53.500","BONILLA ISLAND (AUT)","1060R0K","BC","4.8","0","NA","15.6","0","-2.8","0","","","NA","38.0","2","NA","","9","","","NA","408.5","0.0"
"-127.470","52.187","CATHEDRAL POINT (AUT)","1061458","BC","2.5","0","NA","9.2","0","-4.5","0","","","NA","0.2","7","NA","","0","","","NA","479.5","0.0"
"-128.112","52.185","DRYAD POINT","1062544","BC","3.9","0","-0.3","12.0","0","-2.5","0","15.0","0","140.0","249.4","0","89.0","0.0","18","","","NA","436.3","0.0"
"-127.835","51.247","EGG ISLAND","1062646","BC","3.3","0","-1.6","8.0","0","-3.0","0","34.0","0","492.0","345.6","0","109.0","0.0","18","","","NA","454.7","0.0"
"-130.708","54.569","GREEN ISLAND","1063298","BC","2.7","0","-0.5","7.5","0","-6.5","0","16.2","0","128.0","183.0","0","69.0","2.0","20","","","NA","474.0","0.0"
"-130.698","54.580","GREY ISLET (AUT)","1063303","BC","2.4","0","NA","7.5","0","-5.9","0","","","NA","137.6","0","NA","","15","","","NA","482.2","0.0"
"-127.632","50.940","HERBERT ISLAND (AUT)","1063461","BC","4.8","0","NA","12.1","0","-0.2","0","","","NA","158.2","0","NA","","15","","","NA","410.6","0.0"
"-130.361","54.173","HOLLAND ROCK","1063496","BC","3.5","0","NA","10.0","0","-3.6","0","","","NA","","","NA","","","","","NA","450.6","0.0"
"-128.407","52.270","IVORY ISLAND","1063690","BC","3.8","0","-0.6","10.0","0","-2.5","0","20.0","0","122.0","206.7","0","69.0","0.0","18","","","NA","441.1","0.0"
"-127.943","53.563","KEMANO","1064020","BC","-1.0","0","0.4","10.0","0","-12.0","0","126.0","0","211.0","228.3","0","91.0","29.0","19","","","NA","590.3","0.0"
"-128.634","54.054","KITIMAT TOWNSITE","1064320","BC","-1.9","8","-0.2","6.0","8","-12.0","8","167.0","8","NA","286.6","8","NA","","15","","","NA","457.5","0.0"
"-128.705","54.010","KITIMAT 2","1064321","BC","-0.6","14","0.3","9.0","14","-10.0","14","153.5","0","178.0","363.2","0","93.0","","19","","","NA","316.9","0.0"
"-128.641","54.065","KITIMAT 3","1064322","BC","","","NA","","","","","232.0","0","205.0","352.2","0","110.0","20.0","19","","","NA","",""
"-130.729","54.359","LUCY ISLAND LIGHTSTATION","1064728","BC","3.3","0","NA","11.7","0","-3.2","0","","","NA","","","NA","","","","","NA","456.8","0.0"
"-128.719","52.262","MCINNES ISLAND","1065010","BC","4.0","0","-0.7","8.3","0","-3.6","0","22.0","1","NA","349.8","0","115.0","","25","","","NA","434.4","0.0"
"-130.445","54.286","PRINCE RUPERT AWOS","1066483","BC","1.7","0","NA","11.4","0","-10.2","0","","","NA","82.0","1","NA","","13","","","NA","503.8","0.0"
"-129.985","55.936","STEWART A","1067742","BC","-3.9","2","-0.9","5.6","2","-23.2","2","233.2","2","NA","312.3","2","NA","","16","","","NA","634.2","0.0"
"-126.067","52.368","STUIE TWEEDSMUIR LODGE","1067776","BC","-1.2","0","0.7","8.5","0","-13.5","0","82.4","0","235.0","105.4","0","106.0","37.0","12","","","NA","596.6","0.0"
"-128.578","54.466","TERRACE A","1068130","BC","-3.0","0","0.0","6.1","0","-14.8","0","137.8","0","156.0","165.4","0","95.0","1.0","15","","","NA","652.5","0.0"
"-128.625","54.502","TERRACE PCC","1068131","BC","-2.5","2","-0.5","7.0","2","-14.0","2","108.0","2","NA","183.6","2","NA","3.0","14","","","NA","594.7","0.0"
"-130.880","54.295","TRIPLE ISLAND","1068250","BC","3.7","1","NA","10.0","1","-4.0","1","7.0","1","NA","117.8","1","NA","0.0","17","","","NA","428.0","0.0"
"-128.682","54.044","KITIMAT HATCHERY","106D289","BC","-1.1","7","NA","7.5","7","-12.5","7","119.6","7","NA","251.8","7","NA","39.0","14","","","NA","457.5","0.0"
"-126.277","54.199","EQUITY SILVER","1072692","BC","-7.6","0","0.8","4.5","0","-27.0","0","76.0","0","121.0","76.0","0","117.0","0.0","10","","","NA","792.7","0.0"
"-126.668","54.396","HOUSTON","1073615","BC","-5.4","1","NA","10.5","1","-26.0","1","29.0","1","NA","29.0","1","NA","0.0","5","","","NA","702.0","0.0"
"-129.029","55.238","NASS CAMP","1075384","BC","-5.3","0","0.2","10.0","0","-21.5","0","104.8","0","122.0","193.4","0","141.0","63.0","17","","","NA","723.2","0.0"
"-127.183","54.825","SMITHERS A","1077500","BC","-7.2","0","0.0","12.8","0","-27.7","0","50.7","0","114.0","37.2","0","87.0","34.0","12","","","NA","781.6","0.0"
"-126.163","54.816","TOPLEY LANDING","1078209","BC","-6.3","12","2.2","11.0","12","-26.5","12","11.5","27","NA","11.5","27","NA","","2","","","NA","462.5","0.0"
"-130.446","56.653","UNUK RIVER ESKAY CREEK","1078L3D","BC","-7.0","0","NA","2.0","0","-24.0","0","330.0","0","NA","333.0","0","NA","307.0","17","","","NA","775.5","0.0"
"-127.171","55.289","SUSKWA VALLEY","107G879","BC","-6.2","0","0.2","6.0","0","-24.0","0","60.8","0","132.0","77.2","0","127.0","53.0","17","","","NA","751.1","0.0"
"-124.467","51.824","LUNCH LAKE","1084731","BC","-7.5","0","0.4","8.5","0","-34.0","0","4.0","0","18.0","4.0","0","14.0","23.0","4","","","NA","790.0","0.0"
"-125.997","53.772","OOTSA L SKINS L SPILLWAY","1085835","BC","-8.1","0","-0.4","7.5","0","-30.0","0","25.2","0","80.0","26.0","0","71.0","","6","","","NA","810.2","0.0"
"-125.997","53.772","OOTSA LAKESKINS LAKE CLIMATE","1085836","BC","-6.9","0","NA","7.1","0","-28.0","0","","","NA","33.9","0","NA","","11","","","NA","772.0","0.0"
"-122.734","50.306","PEMBERTON AIRPORT CS","1086082","BC","-3.6","0","NA","5.8","0","-18.9","0","","","NA","43.1","21","NA","26.0","6","","","NA","669.8","0.0"
"-124.136","52.114","PUNTZI MOUNTAIN (AUT)","1086558","BC","-12.9","0","NA","10.0","0","-38.5","0","","","NA","","","NA","","","","","NA","957.1","0.0"
"-124.403","51.675","TATLAYOKO LAKE RCS","1088015","BC","-5.4","0","NA","10.9","0","-28.5","0","","","NA","14.0","0","NA","","4","","","NA","726.2","0.0"
"-121.515","53.069","BARKERVILLE","1090660","BC","-8.0","0","-0.5","7.0","0","-27.5","0","137.6","0","157.0","137.6","0","143.0","130.0","16","","","NA","805.9","0.0"
"-125.959","54.383","BURNS LAKE DECKER LAKE","1091174","BC","-10.1","0","NA","10.1","0","-34.6","0","","","NA","23.1","0","NA","39.0","5","","","NA","870.2","0.0"
"-120.700","53.600","CRESCENT SPUR","1092120","BC","-6.3","0","NA","7.0","0","-29.5","0","102.2","0","NA","119.0","0","NA","52.0","16","","","NA","752.6","0.0"
"-124.286","54.455","FORT ST JAMES","1092970","BC","-7.4","2","2.2","13.5","2","-31.0","1","67.0","2","NA","68.6","2","NA","0.0","10","","","NA","735.7","0.0"
"-122.699","53.532","HIXON","1093474","BC","-7.4","0","-0.7","8.5","0","-32.0","0","76.4","0","146.0","78.6","0","122.0","0.0","12","","","NA","787.5","0.0"
"-121.364","52.363","HORSEFLY LAKE GRUHS LAKE","1093600","BC","-9.1","0","-2.1","3.5","0","-36.0","0","63.9","0","139.0","76.9","0","139.0","85.0","11","","","NA","838.7","0.0"
"-120.353","53.423","MCBRIDE ELDER CREEK","1094948","BC","","","NA","","","","","","","NA","","","NA","","","0.0","30.9583333333333333333333333333333333333","NA","",""
"-122.374","52.380","MCLEESE LAKE FRASERVIEW","1095015","BC","-8.1","0","-1.9","8.0","0","-31.5","0","26.5","0","97.0","26.5","0","77.0","40.0","6","","","NA","809.1","0.0"
"-122.287","52.530","MCLEESE LAKE GRANITE MT","1095018","BC","-4.3","15","NA","6.0","15","-27.0","11","25.5","15","NA","25.5","15","NA","","4","","","NA","357.4","0.0"
"-122.679","53.891","PRINCE GEORGE A","1096450","BC","-8.4","0","-0.5","4.6","0","-31.6","0","67.8","0","124.0","64.1","0","121.0","40.0","14","","","NA","817.5","0.0"
"-122.768","53.880","PRINCE GEORGE STP","1096468","BC","-7.5","0","-0.7","6.5","0","-31.5","0","118.2","0","277.0","122.0","0","224.0","46.0","13","","","NA","789.0","0.0"
"-122.510","53.026","QUESNEL AWOS","1096625","BC","-8.0","0","NA","8.1","0","-32.6","0","","","NA","36.0","0","NA","","8","","","NA","805.1","0.0"
"-121.686","52.184","SPOKIN LAKE 4E","1097646","BC","-8.8","0","-1.2","18.5","0","-36.0","0","42.0","0","115.0","42.0","0","92.0","56.0","9","","","NA","831.3","0.0"
"-122.054","52.183","WILLIAMS LAKE A","1098940","BC","-8.4","0","-1.7","6.4","0","-31.1","0","31.6","0","86.0","28.8","0","87.0","55.0","6","","","NA","817.6","0.0"
"-124.017","54.033","VANDERHOOF","1098D90","BC","-8.1","0","0.8","10.5","0","-33.0","0","57.2","0","151.0","57.3","0","129.0","0.0","10","","","NA","810.5","0.0"
"-122.489","52.541","CASTLE ROCK 6 NORTH","109A4NG","BC","-6.6","12","NA","14.0","12","-30.0","12","0.4","30","NA","0.4","30","NA","","0","","","NA","467.0","0.0"
"-124.847","54.078","FRASER LAKE NORTH SHORE","109C0LF","BC","-7.9","0","1.6","10.0","0","-30.5","0","55.0","0","129.0","56.8","0","119.0","0.0","10","","","NA","803.6","0.0"
"-121.404","51.705","108 MILE HOUSE ABEL LAKE","109E7R6","BC","-7.8","0","NA","6.0","0","-30.5","0","29.0","0","NA","32.2","0","NA","43.0","9","","","NA","798.4","0.0"
"-123.110","50.138","CALLAGHAN VALLEY (SKI JUMP TOP)","1100001","BC","-0.9","0","NA","12.8","0","-12.0","0","","","NA","","","NA","","","","","NA","586.1","0.0"
"-123.208","49.392","CYPRESS BOWL FREESTYLE","1100004","BC","3.4","12","NA","19.5","12","-19.9","12","","","NA","0.0","12","NA","","0","","","NA","277.7","0.0"
"-122.360","49.025","ABBOTSFORD A","1100030","BC","2.1","0","-1.5","12.3","0","-9.4","0","32.2","0","174.0","223.1","0","105.0","0.0","13","","","NA","491.7","0.0"
"-121.760","49.243","AGASSIZ RCS","1100119","BC","2.8","15","-0.6","12.7","15","-13.9","15","","","NA","","","NA","","","","","NA","242.5","0.0"
"-121.760","49.243","AGASSIZ CDA","1100120","BC","3.0","2","-0.4","13.0","0","-7.0","2","54.0","0","266.0","399.6","0","166.0","0.0","14","","","NA","434.4","0.0"
"-122.955","50.129","WHISTLER - NESTERS","1100875","BC","-2.6","0","NA","4.3","0","-17.5","0","","","NA","112.2","0","NA","36.0","14","","","NA","637.1","0.0"
"-122.936","50.102","BLACKCOMB BASE SLIDING CENTER","1100881","BC","-2.1","0","NA","7.4","0","-14.8","0","","","NA","61.4","0","NA","","9","","","NA","624.2","0.0"
"-122.942","50.106","BLACKCOMB BASE SLIDING CENTRE BOTTOM","1100882","BC","-2.6","0","NA","4.4","0","-16.0","0","","","NA","","","NA","","","","","NA","639.0","0.0"
"-122.918","49.278","BURNABY SIMON FRASER U","1101158","BC","2.7","24","-1.0","7.3","24","-3.0","24","0.0","24","NA","0.0","24","NA","","0","","","NA","107.4","0.0"
"-123.111","50.144","CALLAGHAN VALLEY","1101300","BC","-1.3","0","NA","10.2","0","-14.0","0","","","NA","97.3","0","NA","86.0","8","","","NA","596.8","0.0"
"-123.116","50.147","CALLAGHAN VALLEY(BIATHALON)","1101310","BC","-1.3","0","NA","15.1","0","-15.6","0","","","NA","0.0","1","NA","","0","","","NA","599.3","0.0"
"-123.113","50.137","CALLAGHAN VALLEY(SKI JUMP BOTTOM)","1101320","BC","-1.1","0","NA","15.6","0","-16.2","0","","","NA","0.0","1","NA","","0","","","NA","592.1","0.0"
"-121.925","49.172","CHILLIWACK","1101530","BC","2.3","0","-1.0","12.0","0","-9.5","0","50.0","0","188.0","270.6","0","116.0","0.0","15","","","NA","488.0","0.0"
"-122.866","49.269","COQUITLAM COMO LAKE AVE","1101889","BC","","","NA","","","","","48.7","0","200.0","221.0","0","80.0","18.0","14","","","NA","",""
"-121.700","49.083","CHILLIWACK R HATCHERY","1101N65","BC","0.9","0","-0.9","7.0","0","-9.0","0","14.0","0","64.0","150.1","0","83.0","0.0","12","","","NA","530.0","0.0"
"-123.208","49.402","CYPRESS BOWL NORTH","1102255","BC","-0.1","0","NA","13.8","0","-11.4","0","131.0","22","NA","250.5","2","NA","167.0","11","","","NA","561.4","0.0"
"-123.194","49.379","CYPRESS BOWL SOUTH","1102256","BC","1.6","0","NA","19.8","0","-8.8","0","","","NA","","","NA","","","","","NA","509.7","0.0"
"-123.093","49.011","DELTA TSAWWASSEN BEACH","1102425","BC","3.2","0","-1.9","10.5","0","-5.0","0","0.0","0","0.0","110.6","0","82.0","0.0","11","","","NA","457.8","0.0"
"-122.551","49.144","FORT LANGLEY TELEGRAPH TRAIL","1102912","BC","1.3","0","NA","9.5","0","-8.0","0","59.0","0","NA","229.2","0","NA","0.0","14","","","NA","519.0","0.0"
"-122.558","49.204","HANEY EAST","1103326","BC","0.9","0","-2.3","8.5","0","-10.0","0","0.0","0","0.0","195.2","0","79.0","","13","","","NA","530.5","0.0"
"-122.573","49.264","HANEY UBC RF ADMIN","1103332","BC","0.3","6","-3.0","6.5","6","-9.5","6","38.2","6","NA","184.5","6","NA","0.0","12","","","NA","443.6","0.0"
"-121.580","49.357","LAIDLAW","1104488","BC","1.7","1","-0.4","8.5","1","-8.5","1","58.8","1","NA","320.2","1","NA","0.0","16","","","NA","487.7","0.0"
"-122.507","49.211","MAPLE RIDGE KANAKA CREEK","1104R02","BC","-0.1","2","-2.6","7.0","2","-10.0","2","26.6","2","NA","211.4","2","NA","14.0","13","","","NA","524.7","0.0"
"-122.271","49.153","MISSION WEST ABBEY","1105192","BC","2.2","0","-1.1","11.5","0","-8.5","0","39.8","0","174.0","243.2","0","96.0","0.0","15","","","NA","490.2","0.0"
"-123.081","49.368","N VANC GROUSE MTN RESORT","1105658","BC","0.4","5","0.7","16.5","4","-10.0","5","215.0","4","NA","306.4","4","NA","0.0","13","","","NA","458.7","0.0"
"-123.119","49.314","N VANCOUVER WHARVES","1105669","BC","","","NA","","","","","4.0","25","NA","167.0","25","NA","","6","","","NA","",""
"-122.690","49.208","PITT MEADOWS CS","1106178","BC","1.1","0","NA","9.1","0","-9.0","0","","","NA","184.0","0","NA","","13","","","NA","524.3","0.0"
"-123.265","49.330","POINT ATKINSON","1106200","BC","2.9","0","NA","9.3","0","-2.6","0","","","NA","133.3","0","NA","","11","","","NA","468.7","0.0"
"-123.087","49.179","RICHMOND DALLYN 2","1106764","BC","","","NA","","","","","4.4","13","NA","5.8","13","NA","0.0","2","","","NA","",""
"-122.881","49.279","PORT MOODY GLENAYRE","1106CL2","BC","0.7","0","-3.2","6.0","0","-7.0","0","23.0","0","127.0","246.0","0","86.0","0.0","11","","","NA","537.0","0.0"
"-123.093","49.171","RICHMOND NATURE PARK","1106PF7","BC","1.8","3","-2.2","8.0","3","-8.5","3","19.5","3","NA","122.0","3","NA","0.0","15","","","NA","454.8","0.0"
"-123.303","49.106","SANDHEADS CS","1107010","BC","3.3","0","NA","10.6","0","-2.1","0","","","NA","","","NA","","","","","NA","456.8","0.0"
"-123.122","49.295","VANCOUVER HARBOUR CS","1108446","BC","2.8","0","NA","7.9","0","-2.8","0","","","NA","202.8","0","NA","","10","","","NA","471.1","0.0"
"-123.182","49.195","VANCOUVER INT'L A","1108447","BC","2.1","0","-2.0","8.5","0","-6.5","0","17.0","0","154.0","129.4","0","77.0","0.0","12","39.9","0","66.0","491.5","0.0"
"-123.193","49.347","WEST VANCOUVER AUT","1108824","BC","1.6","0","NA","8.6","0","-5.7","0","","","NA","252.6","0","NA","","11","","","NA","509.2","0.0"
"-122.947","50.068","WHISTLER ROUNDHOUSE","1108906","BC","-2.5","0","NA","13.5","0","-18.0","0","126.0","0","NA","126.0","0","NA","125.0","14","","","NA","635.3","0.0"
"-122.784","49.018","WHITE ROCK CAMPBELL SCIENTIFIC","1108910","BC","3.9","0","NA","11.9","0","-5.4","0","","","NA","","","NA","","","","","NA","437.9","0.0"
"-122.946","50.077","WHISTLER MOUNTAIN HIGH LEVEL","1108987","BC","-3.6","0","NA","10.9","0","-16.9","0","58.0","22","NA","69.6","0","NA","121.0","11","","","NA","668.2","0.0"
"-122.976","50.088","WHISTLER MOUNTAIN LOW LEVEL","1108988","BC","-3.0","23","NA","5.6","23","-14.7","21","5.0","28","NA","0.0","25","NA","","0","","","NA","167.8","0.0"
"-122.947","50.074","WHISTLER MOUNTAIN HIGH LEVEL REMOTE WIND","1108989","BC","-2.5","0","NA","16.6","0","-17.2","0","","","NA","","","NA","","","","","NA","636.0","0.0"
"-122.964","50.085","WHISTLER MOUNTAIN MID-STATION","1108990","BC","-1.9","0","NA","14.9","0","-13.7","0","79.0","20","NA","94.3","0","NA","82.0","10","","","NA","618.3","0.0"
"-122.967","49.438","N VAN SEYMOUR HATCHERY","110N666","BC","-0.8","3","-2.9","3.6","3","-12.5","3","78.1","3","NA","269.6","3","NA","0.0","15","","","NA","526.6","0.0"
"-123.098","49.363","N VANC SONORA DR","110N6FF","BC","","","NA","","","","","42.0","0","253.0","253.8","0","77.0","7.0","16","","","NA","",""
"-121.494","49.370","HOPE (AUT)","1113541","BC","1.8","0","NA","8.1","0","-10.0","0","","","NA","207.5","1","NA","","12","","","NA","502.4","0.0"
"-121.934","50.684","LILLOOET","1114619","BC","-1.6","0","NA","10.9","0","-19.0","0","","","NA","","","NA","","","","","NA","607.1","0.0"
"-121.582","50.224","LYTTON","1114739","BC","-0.8","0","NA","11.5","0","-17.3","0","","","NA","7.0","0","NA","","4","","","NA","584.3","0.0"
"-121.608","50.257","LYTTON 2","1114745","BC","","","NA","","","","","7.2","0","NA","14.4","0","NA","0.0","4","","","NA","",""
"-121.582","50.224","LYTTON RCS","1114746","BC","-0.9","0","NA","11.5","0","-17.4","0","","","NA","202.8","13","NA","","17","","","NA","586.7","0.0"
"-120.069","49.363","HEDLEY N","1123370","BC","-5.8","11","NA","3.5","11","-23.0","11","17.2","11","NA","18.8","11","NA","","4","","","NA","476.7","0.0"
"-121.017","50.467","HIGHLAND VALLEY LORNEX","1123469","BC","-5.8","1","-0.9","7.0","1","-25.0","1","13.0","1","NA","13.0","1","NA","0.0","5","","","NA","713.0","0.0"
"-120.333","49.673","JELLICOE","1123721","BC","-6.5","0","NA","7.5","0","-28.0","0","40.0","0","NA","48.0","0","NA","0.0","9","","","NA","759.0","0.0"
"-119.378","49.956","KELOWNA AWOS","1123965","BC","-4.2","0","NA","8.0","0","-24.3","0","","","NA","24.5","0","NA","","8","","","NA","689.2","0.0"
"-119.573","49.842","KELOWNA QUAILS GATE","1123993","BC","-1.6","9","NA","9.5","9","-14.5","7","9.0","9","NA","9.0","9","NA","3.0","1","","","NA","430.5","0.0"
"-119.400","49.950","KELOWNA MWS0","11239R0","BC","-3.2","0","NA","8.1","0","-21.5","0","31.6","0","NA","28.2","0","NA","23.0","6","","","NA","656.8","0.0"
"-120.801","50.114","MERRITT STP","1125079","BC","-3.4","0","-0.4","12.5","0","-24.0","0","4.5","0","27.0","6.5","0","21.0","0.0","2","","","NA","662.6","0.0"
"-119.444","50.056","OKANAGAN CENTRE","1125700","BC","-1.8","0","-1.3","9.0","0","-16.5","0","31.6","0","130.0","57.6","0","131.0","0.0","7","","","NA","614.9","0.0"
"-119.545","49.179","OLIVER STP","1125766","BC","-3.2","13","-2.4","4.0","13","-15.0","13","2.5","13","NA","2.5","13","NA","","1","","","NA","381.4","0.0"
"-119.441","49.028","OSOYOOS CS","1125852","BC","-3.6","3","-2.7","7.2","3","-21.5","2","","","NA","","","NA","","","","","NA","605.5","0.0"
"-119.443","49.032","OSOYOOS WEST","1125865","BC","-3.5","0","-2.8","7.0","0","-20.0","0","24.4","0","167.0","25.0","0","87.0","18.0","4","","","NA","666.2","0.0"
"-119.717","49.783","PEACHLAND","1126070","BC","-1.9","0","-1.6","8.1","0","-16.0","0","30.0","0","126.0","38.8","0","90.0","0.0","6","","","NA","615.9","0.0"
"-119.602","49.463","PENTICTON A","1126150","BC","-2.6","0","-2.0","7.7","0","-20.2","0","28.6","0","156.0","32.5","0","121.0","0.0","7","","","NA","638.6","0.0"
"-120.513","49.468","PRINCETON A","1126510","BC","","","","","","","","","","NA","","","NA","","","0.0","30.9583333333333333333333333333333333333","NA","",""
"-119.194","50.223","VERNON AUTO","1128582","BC","-4.6","0","NA","5.6","0","-21.0","0","","","NA","","","NA","","","","","NA","701.1","0.0"
"-119.270","50.344","VERNON NORTH","1128583","BC","-3.7","0","-0.9","6.5","0","-19.5","0","44.5","0","110.0","49.3","0","94.0","31.0","6","","","NA","673.0","0.0"
"-119.054","50.358","VERNON SILVER STAR LODGE","1128584","BC","-7.4","2","NA","9.0","2","-26.0","2","116.5","2","NA","116.5","2","NA","120.0","12","","","NA","735.5","0.0"
"-119.415","50.037","WINFIELD","1128958","BC","-3.1","0","-1.2","8.0","0","-17.5","0","26.8","0","98.0","28.4","0","82.0","25.0","5","","","NA","652.9","0.0"
"-120.512","49.468","PRINCETON CS","112FN0M","BC","-6.1","0","NA","6.4","0","-27.6","0","","","NA","","","NA","","","","","NA","747.3","0.0"
"-119.638","49.564","SUMMERLAND CS","112G8L1","BC","-3.2","0","-1.7","7.7","0","-16.8","0","","","NA","","","NA","","","","","NA","656.2","0.0"
"-118.773","49.000","MIDWAY","1135126","BC","-8.1","0","-3.9","4.5","0","-27.5","0","45.0","0","151.0","45.8","0","122.0","42.0","4","","","NA","810.0","0.0"
"-118.228","49.017","BILLINGS","1140876","BC","-6.4","11","-3.1","6.0","11","-19.5","11","9.7","11","NA","9.7","11","NA","42.0","2","","","NA","488.3","0.0"
"-117.633","49.296","CASTLEGAR A","1141455","BC","-2.5","0","-0.9","6.2","0","-19.4","0","58.2","0","105.0","54.2","0","72.0","33.0","8","","","NA","635.6","0.0"
"-117.774","49.343","CASTLEGAR BCHPA DAM","1141457","BC","-1.6","1","-0.4","5.5","0","-12.5","1","53.0","0","159.0","63.0","0","96.0","17.0","10","","","NA","587.7","0.0"
"-116.518","49.097","CRESTON","1142160","BC","-2.9","0","-1.3","8.0","0","-15.0","0","40.0","0","105.0","65.8","0","96.0","34.0","6","","","NA","647.2","0.0"
"-116.971","50.239","DUNCAN LAKE DAM","1142574","BC","-4.3","0","-1.4","4.0","0","-22.0","0","70.0","0","126.0","95.9","0","103.0","48.0","14","","","NA","690.8","0.0"
"-118.068","49.872","FAUQUIER","1142820","BC","","","","","","","","","","NA","","","NA","","","0.0","30.9583333333333333333333333333333333333","NA","",""
"-116.915","49.913","KASLO","1143900","BC","-2.7","0","-0.6","5.5","0","-16.5","0","62.4","0","105.0","88.6","0","84.0","43.0","11","","","NA","642.0","0.0"
"-116.458","49.032","LISTER","1144635","BC","-3.7","0","-1.9","9.5","0","-18.0","0","42.0","0","129.0","60.7","0","106.0","0.0","6","","","NA","673.6","0.0"
"-117.813","50.266","NAKUSP CS","1145297","BC","-1.9","0","NA","6.5","0","-14.1","0","","","NA","","","NA","","","","","NA","617.0","0.0"
"-117.206","49.586","NELSON NE","1145442","BC","-1.4","0","NA","6.5","0","-16.0","0","74.6","0","NA","122.0","0","NA","38.0","10","","","NA","600.8","0.0"
"-117.370","49.996","NEW DENVER","1145460","BC","-2.5","0","-0.8","5.0","0","-14.5","0","114.4","0","199.0","146.0","0","145.0","46.0","12","","","NA","635.5","0.0"
"-117.305","49.491","NELSON CS","1145M29","BC","-0.8","5","NA","5.2","5","-14.7","5","","","NA","","","NA","","","","","NA","489.4","0.0"
"-117.739","49.112","WARFIELD RCS","1148705","BC","","","NA","","","-18.8","0","","","NA","146.1","0","NA","46.0","12","","","NA","",""
"-116.501","49.082","CRESTON CAMPBELL SCIENTIFIC","114B1F0","BC","-3.0","0","NA","9.5","0","-14.5","0","","","NA","","","NA","","","","","NA","650.7","0.0"
"-117.399","49.512","NELSON RIXEN CREEK","114EMDM","BC","-3.8","0","NA","4.0","0","-18.0","0","88.8","0","NA","117.8","0","NA","62.0","10","","","NA","676.2","0.0"
"-115.221","49.226","BAYNES LAKE KOOTENAY RIVER","1150690","BC","-6.4","3","-0.8","9.0","3","-27.0","3","16.4","3","NA","20.8","3","NA","14.0","6","","","NA","682.1","0.0"
"-115.782","49.612","CRANBROOK A","1152102","BC","-6.9","0","-0.8","7.7","0","-26.1","0","9.6","0","38.0","8.4","0","33.0","19.0","3","","","NA","771.3","0.0"
"-115.072","49.489","FERNIE","1152850","BC","-5.4","1","-0.2","8.0","1","-32.0","1","16.0","1","NA","77.0","1","NA","21.0","5","","","NA","700.7","0.0"
"-115.461","49.524","FT STEELE DANDY CRK","1153034","BC","-5.0","16","NA","8.0","16","-23.0","10","0.0","16","NA","0.0","16","NA","2.0","0","","","NA","345.6","0.0"
"-115.962","49.631","KIMBERLEY PCC","1154203","BC","-7.3","11","-0.4","7.0","11","-29.5","11","11.0","11","NA","16.2","11","NA","","3","0.0","30.9583333333333333333333333333333333333","NA","505.3","0.0"
"-116.061","50.631","KOOTENAY NP WEST GATE","1154410","BC","-7.7","0","-0.9","2.5","0","-25.0","0","22.0","0","81.0","26.4","0","80.0","20.0","9","","","NA","796.8","0.0"
"-114.886","49.745","SPARWOOD CS","1157631","BC","-7.4","0","NA","6.0","0","-30.8","0","","","NA","","","NA","","","","","NA","786.7","0.0"
"-115.631","49.824","WASA","1158730","BC","-6.1","0","0.0","7.5","0","-22.0","0","6.4","0","36.0","7.2","0","28.0","7.0","2","","","NA","748.2","0.0"
"-119.290","52.129","BLUE RIVER A","1160899","BC","-8.1","1","-0.9","3.9","1","-35.0","1","147.3","1","NA","111.8","1","NA","","15","","","NA","783.9","0.0"
"-120.794","51.504","BRIDGE LAKE 2","1160986","BC","-8.5","1","-2.0","9.0","1","-34.0","1","35.8","1","NA","37.4","1","NA","54.0","7","","","NA","794.4","0.0"
"-119.290","52.129","BLUE RIVER CS","1160H99","BC","-8.4","0","NA","3.9","0","-35.0","0","","","NA","","","NA","","","","","NA","819.3","0.0"
"-121.083","51.708","BUFFALO LAKE","1161104","BC","-9.6","0","-1.7","6.0","0","-35.0","0","37.4","0","96.0","38.2","0","81.0","51.0","7","","","NA","854.3","0.0"
"-121.505","51.145","CLINTON (AUT)","1161661","BC","-7.9","0","NA","6.3","0","-28.5","0","","","NA","15.5","0","NA","","8","","","NA","802.1","0.0"
"-120.728","51.030","CRISS CREEK","1162177","BC","-9.9","3","-2.3","7.5","3","-33.0","3","21.6","3","NA","21.8","3","NA","32.0","5","","","NA","780.1","0.0"
"-120.183","51.297","DARFIELD","1162265","BC","-6.7","0","-2.1","1.0","0","-28.0","0","28.5","0","88.0","28.5","0","67.0","34.0","5","","","NA","764.5","0.0"
"-120.442","50.702","KAMLOOPS A","1163780","BC","-5.4","0","-2.6","6.3","0","-23.7","0","14.0","0","75.0","14.4","0","68.0","7.0","4","","","NA","725.0","0.0"
"-120.442","50.702","KAMLOOPS AUT","1163842","BC","-5.6","0","NA","6.0","0","-23.7","0","","","NA","","","NA","","","","","NA","730.7","0.0"
"-118.956","50.236","LUMBY","1164729","BC","-6.3","2","NA","4.5","2","-30.0","2","25.0","2","NA","28.2","2","NA","","8","","","NA","704.0","0.0"
"-120.222","51.047","MCLURE","1165030","BC","-6.4","0","-1.9","5.0","0","-27.0","0","27.4","0","105.0","33.4","0","88.0","27.0","6","","","NA","757.5","0.0"
"-121.217","51.681","100 MILE HOUSE 6NE","1165793","BC","-9.4","0","NA","6.5","0","-36.0","0","39.4","0","NA","43.6","0","NA","57.0","11","","","NA","848.7","0.0"
"-120.800","50.935","RED LAKE","1166658","BC","-7.2","1","-0.9","6.0","1","-27.0","1","40.0","1","NA","40.0","1","NA","","6","","","NA","756.2","0.0"
"-119.234","50.686","SALMON ARM A","1166R45","BC","-4.8","0","-1.1","5.0","0","-24.0","0","78.0","0","139.0","78.0","0","116.0","47.0","7","","","NA","707.2","0.0"
"-119.350","50.545","SILVER CREEK","1167337","BC","-4.5","0","-1.1","5.5","0","-24.5","0","56.7","0","130.0","69.4","0","115.0","45.0","8","","","NA","697.3","0.0"
"-119.751","50.469","WESTWOLD","1168880","BC","-5.5","13","-1.5","8.0","13","-30.0","13","14.0","13","NA","16.2","13","NA","","5","","","NA","423.0","0.0"
"-120.200","50.600","KAMLOOPS PRATT ROAD","116C8P0","BC","-5.3","0","NA","7.5","0","-23.0","0","16.5","0","NA","17.9","0","NA","23.0","6","","","NA","720.9","0.0"
"-119.291","50.703","SALMON ARM CS","116FRMN","BC","-4.2","0","-1.6","6.7","0","-22.1","0","","","NA","","","NA","","","","","NA","689.5","0.0"
"-120.839","51.327","VIDETTE LAKE SHARPE LAKE","116HFF6","BC","-8.0","0","-1.6","6.5","0","-32.5","0","23.6","0","71.0","24.6","0","67.0","33.0","7","","","NA","806.5","0.0"
"-117.516","51.301","GLACIER NP ROGERS PASS","1173191","BC","-9.1","0","-0.7","0.5","0","-26.5","0","192.0","0","91.0","192.0","0","87.0","155.0","20","","","NA","838.8","0.0"
"-116.982","51.298","GOLDEN A","1173210","BC","-8.9","1","-1.0","1.7","1","-26.1","1","36.6","1","NA","30.0","1","NA","","8","","","NA","808.1","0.0"
"-118.425","51.630","GOLDSTREAM RIVER","1173242","BC","-12.2","0","-5.7","2.0","0","-24.0","0","102.0","0","80.0","102.0","0","75.0","97.0","13","","","NA","935.5","0.0"
"-118.585","52.053","MICA DAM","1175122","BC","-4.7","2","0.2","2.5","2","-18.0","1","174.5","2","NA","183.7","2","NA","128.0","16","","","NA","656.9","0.0"
"-118.183","50.961","REVELSTOKE A","1176749","BC","-3.7","0","NA","4.2","0","-18.3","0","","","NA","146.5","0","NA","","14","","","NA","672.0","0.0"
"-118.224","51.012","REVELSTOKE COLUMBIA PARK","1176754","BC","","","NA","","","","","87.0","23","NA","87.0","23","NA","","7","","","NA","",""
"-116.344","51.443","YOHO PARK","11790J1","BC","-11.3","0","NA","-0.8","0","-32.7","0","","","NA","","","NA","","","","","NA","908.3","0.0"
"-117.701","51.236","GLACIER NP MT FIDELITY","117CA90","BC","-7.3","0","0.8","8.0","0","-22.0","0","","","NA","","","NA","","","","","NA","784.3","0.0"
"-116.337","51.356","YOHO NP OHARA LAKE","117R00H","BC","-8.7","27","NA","0.0","27","-18.0","27","4.6","27","NA","4.6","27","NA","79.0","3","","","NA","106.8","0.0"
"-121.016","56.298","CHARLIE LAKE","11814FR","BC","-14.1","1","NA","10.5","1","-42.0","1","35.0","1","NA","35.0","1","NA","46.0","9","","","NA","961.5","0.0"
"-121.627","55.687","CHETWYND A","1181508","BC","-13.0","18","-2.9","11.7","18","-40.0","18","25.7","0","94.0","14.4","0","68.0","8.0","5","","","NA","403.4","0.0"
"-120.182","55.742","DAWSON CREEK A","1182285","BC","-15.4","0","-2.3","11.4","0","-42.0","0","","","NA","","","NA","","","","","NA","1036.7","0.0"
"-120.182","55.742","DAWSON CREEK LWIS","1182287","BC","-15.4","0","NA","11.4","0","-42.0","0","","","NA","","","NA","","","","","NA","1036.7","0.0"
"-120.740","56.238","FORT ST JOHN A","1183000","BC","-14.5","0","-1.7","8.9","0","-40.2","0","35.8","0","110.0","33.6","0","132.0","38.0","10","","","NA","1006.5","0.0"
"-124.701","55.786","GERMANSEN LANDING","1183090","BC","-13.4","0","-0.3","5.5","0","-40.2","0","46.8","0","97.0","40.7","0","81.0","63.0","11","0.0","30.9583333333333333333333333333333333333","NA","973.0","0.0"
"-123.138","55.305","MACKENZIE A","1184790","BC","-10.6","0","NA","5.8","0","-35.7","0","","","NA","78.5","0","NA","","11","","","NA","887.1","0.0"
"-122.718","57.250","SIKANNI CHIEF","1187335","BC","-15.3","7","NA","12.5","7","-40.5","7","9.8","7","NA","9.8","7","NA","28.0","4","","","NA","800.3","0.0"
"-120.688","56.167","TAYLOR FLATS","1188020","BC","","","NA","","","","","28.0","0","106.0","28.0","0","104.0","24.0","8","","","NA","",""
"-130.011","58.428","DEASE LAKE","1192340","BC","-17.6","0","-1.5","3.0","0","-39.4","0","","","NA","","","NA","","","","","NA","1103.5","0.0"
"-122.597","58.836","FORT NELSON A","1192940","BC","-23.0","0","-2.6","-1.7","0","-41.7","0","57.2","0","200.0","36.9","0","172.0","62.0","11","","","NA","1269.6","0.0"
"-122.600","58.833","FORT NELSON UA","1192950","BC","-22.5","2","NA","17.5","2","-42.0","2","54.2","2","NA","54.2","2","NA","62.0","12","","","NA","1174.5","0.0"
"-124.232","58.653","TETSA RIVER","1195J29","BC","-16.3","18","-0.4","3.5","18","-37.0","18","0.6","29","NA","0.6","29","NA","","0","","","NA","445.6","0.0"
"-130.026","58.426","DEASE LAKE (AUT)","119BLM0","BC","-17.8","0","NA","2.8","0","-39.7","0","","","NA","70.5","0","NA","","11","","","NA","1109.3","0.0"
"-133.700","59.567","ATLIN","1200560","BC","-14.4","0","-1.6","10.0","0","-40.0","0","51.2","0","116.0","53.2","0","117.0","40.0","13","","","NA","1004.9","0.0"
"-134.183","59.600","GRAHAM INLET","1203255","BC","-29.7","22","NA","-23.5","22","-42.0","22","8.8","27","NA","8.8","27","NA","","3","","","NA","429.3","0.0"
"-136.367","59.450","PLEASANT CAMP","1206197","BC","-10.6","2","-2.7","8.0","2","-27.5","2","167.5","2","NA","230.5","2","NA","0.0","18","","","NA","829.6","0.0"
"-139.050","61.367","BURWASH A","2100182","YT","-22.8","0","-2.2","9.5","0","-50.0","0","17.0","0","142.0","12.6","0","150.0","14.0","4","","","NA","1263.5","0.0"
"-136.192","62.115","CARMACKS CS","2100301","YT","-24.6","0","NA","8.2","0","-46.7","0","","","NA","","","NA","","","","","NA","1319.8","0.0"
"-139.128","64.043","DAWSON A","2100402","YT","-25.4","6","0.6","0.0","6","-48.0","6","17.6","6","NA","23.4","6","NA","45.0","5","","","NA","1084.7","0.0"
"-134.390","62.202","DRURY CREEK","2100460","YT","-23.7","8","-2.6","3.0","5","-46.0","5","40.0","4","NA","40.0","4","NA","0.0","4","","","NA","960.0","0.0"
"-133.376","62.208","FARO A","2100517","YT","-21.3","15","-1.2","2.4","15","-40.8","15","37.9","1","NA","33.3","1","NA","","8","","","NA","629.2","0.0"
"-133.376","62.208","FARO (AUT)","2100518","YT","-23.4","0","NA","6.1","0","-46.1","0","","","NA","0.0","0","NA","","0","","","NA","1284.7","0.0"
"-137.580","60.773","HAINES JUNCTION","2100630","YT","-19.6","0","NA","9.2","0","-48.5","0","","","NA","45.2","26","NA","","3","","","NA","1166.3","0.0"
"-138.913","69.568","HERSCHEL ISLAND","2100636","YT","","","NA","","","-33.4","0","","","NA","22.2","7","NA","","5","","","NA","",""
"-140.150","69.164","IVVAVIK NAT. PARK","2100660","YT","-24.4","0","NA","6.5","0","-38.5","0","11.0","24","NA","","","NA","1.0","","","","NA","1315.3","0.0"
"-140.197","69.612","KOMAKUK BEACH","2100682","YT","-22.9","1","NA","8.7","1","-38.9","0","","","NA","","","NA","","","","","NA","1226.7","0.0"
"-130.037","63.244","MACMILLAN PASS","2100693","YT","-21.8","0","NA","5.8","0","-40.0","0","","","NA","94.8","4","NA","","26","","","NA","1234.4","0.0"
"-140.848","68.801","MARGARET LAKE","2100697","YT","-26.7","8","NA","4.6","8","-41.4","7","20.0","22","NA","","","NA","","","","","NA","1027.9","0.0"
"-135.867","63.617","MAYO A","2100700","YT","-26.7","0","-3.5","4.9","0","-50.8","0","22.6","0","80.0","23.2","0","127.0","32.0","6","","","NA","1384.3","0.0"
"-135.183","60.876","MAYO ROAD","2100709","YT","-20.3","0","-3.1","8.5","0","-46.0","0","39.3","0","182.0","39.3","0","182.0","0.0","9","","","NA","1187.5","0.0"
"-137.517","63.600","MCQUESTEN","2100719","YT","-26.8","4","-1.8","7.0","4","-52.0","1","7.8","1","NA","7.8","1","NA","50.0","5","","","NA","1209.2","0.0"
"-139.839","67.571","OLD CROW A","2100800","YT","-22.0","22","7.2","-3.0","22","-44.0","22","13.6","8","NA","10.1","8","NA","","4","","","NA","360.3","0.0"
"-139.839","67.571","OLD CROW RCS","2100805","YT","-35.1","0","NA","-1.4","0","-49.6","0","","","NA","12.6","0","NA","20.0","3","","","NA","1644.9","0.0"
"-137.050","61.033","OTTER FALLS NCPC","2100840","YT","-18.1","3","-1.9","7.0","2","-44.0","2","20.5","2","NA","20.5","2","NA","0.0","6","","","NA","1009.8","0.0"
"-137.367","62.817","PELLY RANCH","2100880","YT","-25.7","1","-0.8","8.5","1","-51.5","1","30.6","1","NA","34.6","1","NA","0.0","10","","","NA","1311.5","0.0"
"-136.218","66.981","ROCK RIVER","2100935","YT","-9.8","18","NA","10.7","16","-29.7","18","","","NA","","","NA","","","","","NA","361.4","0.0"
"-137.217","68.950","SHINGLE POINT A","2100950","YT","-22.9","0","NA","6.9","0","-39.9","0","","","NA","","","NA","","","","","NA","1267.0","0.0"
"-129.132","61.182","HOUR LAKE","2100FCG","YT","-22.9","3","NA","0.5","3","-45.0","2","60.0","2","NA","60.0","2","NA","0.0","12","","","NA","1144.2","0.0"
"-139.133","64.050","DAWSON","2100LRP","YT","-29.7","0","NA","1.4","0","-50.3","0","","","NA","0.0","0","NA","","0","","","NA","1478.2","0.0"
"-135.573","60.946","TAKHINI RIVER RANCH","2101095","YT","-20.2","13","-2.0","2.0","12","-49.5","12","14.0","12","NA","14.0","12","NA","","5","","","NA","688.1","0.0"
"-132.733","60.167","TESLIN (AUT)","2101102","YT","-18.5","0","NA","5.4","0","-41.9","0","","","NA","53.4","0","NA","62.0","8","","","NA","1133.0","0.0"
"-129.217","60.933","TUCHITUA","2101135","YT","-25.4","8","NA","0.0","5","-44.0","5","39.0","5","NA","39.0","4","NA","0.0","8","","","NA","998.0","0.0"
"-128.822","60.117","WATSON LAKE A","2101200","YT","-24.2","0","-1.6","3.3","0","-47.6","0","72.0","0","177.0","50.8","0","165.0","80.0","13","","","NA","1307.2","0.0"
"-128.832","60.116","WATSON LAKE (AUT)","2101204","YT","-24.9","0","NA","2.3","0","-47.6","0","","","NA","53.4","0","NA","94.0","15","","","NA","1329.3","0.0"
"-135.069","60.710","WHITEHORSE A","2101300","YT","-18.7","0","-3.6","10.0","0","-40.9","0","49.3","0","194.0","42.5","0","238.0","","12","","","NA","1137.9","0.0"
"-135.027","60.710","WHITEHORSE RIVERDALE","2101400","YT","-18.4","0","-2.1","10.0","0","-42.0","0","42.4","0","223.0","44.2","0","230.0","52.0","10","","","NA","1127.1","0.0"
"-135.006","68.223","AKLAVIK A","2200100","NT","-24.6","16","NA","9.5","16","-40.0","16","0.0","16","NA","0.0","16","NA","41.0","0","","","NA","638.4","0.0"
"-124.717","70.167","CAPE PARRY A","2200675","NT","-24.4","0","NA","1.0","0","-33.8","0","","","NA","","","NA","","","","","NA","1315.6","0.0"
"-126.084","67.042","COLVILLE LAKE","2200824","NT","-27.5","5","NA","2.4","4","-44.4","3","","","NA","","","NA","","","","","NA","1182.2","0.0"
"-123.433","65.209","DELINE CS","2201022","NT","-25.8","0","NA","4.0","0","-43.6","0","","","NA","","","NA","7.0","","","","NA","1359.1","0.0"
"-124.468","61.257","DEADMEN VALLEY","22010H0","NT","-22.9","0","NA","11.4","0","-45.5","0","40.0","16","NA","","","NA","34.0","","","","NA","1266.7","0.0"
"-128.644","66.242","FORT GOOD HOPE CS","2201450","NT","-30.0","0","NA","-0.6","0","-46.7","0","16.0","22","NA","16.4","0","NA","33.0","7","","","NA","1487.4","0.0"
"-123.467","60.233","FORT LIARD","2201579","NT","-21.8","0","NA","8.2","0","-42.5","0","","","NA","","","NA","","","","","NA","1234.7","0.0"
"-117.602","61.317","FORT PROVIDENCE","2201799","NT","-23.3","0","NA","5.0","0","-42.0","0","","","NA","","","NA","","","","","NA","1279.7","0.0"
"-109.168","62.711","FORT RELIANCE (AUT)","2201903","NT","-26.2","0","NA","1.1","0","-41.4","0","14.0","22","NA","9.1","9","NA","29.0","2","","","NA","1371.4","0.0"
"-113.690","61.181","FORT RESOLUTION A","2202000","NT","-23.4","15","NA","2.1","15","-41.7","15","0.0","15","NA","0.0","15","NA","","0","","","NA","661.6","0.0"
"-121.237","61.760","FORT SIMPSON A","2202101","NT","-24.9","0","-0.7","12.0","0","-48.8","0","40.6","0","148.0","31.4","0","166.0","46.0","7","","","NA","1328.4","0.0"
"-121.237","61.760","FORT SIMPSON CLIMATE","2202102","NT","-25.1","0","NA","11.8","0","-44.8","0","","","NA","29.5","0","NA","22.0","5","","","NA","1335.7","0.0"
"-111.962","60.020","FORT SMITH A","2202200","NT","-23.3","0","-0.9","3.0","0","-42.5","0","32.4","0","135.0","27.8","0","169.0","41.0","5","","","NA","1279.7","0.0"
"-111.929","60.026","FORT SMITH CLIMATE","2202202","NT","-23.1","0","NA","3.5","0","-41.5","0","","","NA","24.4","0","NA","51.0","6","","","NA","1274.3","0.0"
"-115.783","60.840","HAY RIVER A","2202400","NT","-21.9","0","-0.2","6.6","0","-42.0","0","36.2","0","189.0","27.0","0","165.0","56.0","6","","","NA","1237.6","0.0"
"-115.777","60.839","HAY RIVER CLIMATE","2202402","NT","-21.9","0","NA","6.5","0","-42.1","0","","","NA","18.7","0","NA","30.0","6","","","NA","1238.1","0.0"
"-113.726","61.920","INNER WHALEBACKS","2202560","NT","-21.6","7","NA","-3.2","7","-36.6","7","","","NA","0.0","14","NA","","0","","","NA","951.5","0.0"
"-133.483","68.300","INUVIK AWOS A","2202575","NT","-25.6","0","NA","7.1","0","-42.9","0","","","NA","","","NA","","","","","NA","1352.6","0.0"
"-133.517","68.317","INUVIK CLIMATE","2202578","NT","-24.9","0","NA","6.9","0","-41.6","0","","","NA","13.2","0","NA","41.0","3","","","NA","1328.7","0.0"
"-117.245","63.134","LAC LA MARTRE","2202678","NT","-23.8","6","NA","1.1","5","-46.0","5","","","NA","","","NA","","","","","NA","1044.2","0.0"
"-126.800","65.283","NORMAN WELLS A","2202800","NT","-28.7","0","-2.6","12.4","0","-45.3","0","21.2","0","101.0","21.4","0","137.0","16.0","6","","","NA","1446.7","0.0"
"-126.753","65.288","NORMAN WELLS CLIMATE","2202810","NT","-29.2","0","NA","13.3","0","-47.4","0","","","NA","16.0","0","NA","","5","","","NA","1461.9","0.0"
"-124.083","69.358","PAULATUK","2203058","NT","-23.9","0","NA","4.0","0","-35.8","0","","","NA","7.8","0","NA","4.0","3","","","NA","1297.5","0.0"
"-135.444","69.633","PELLY ISLAND","2203095","NT","-24.1","0","NA","5.3","0","-36.4","0","","","NA","","","NA","","","","","NA","1303.6","0.0"
"-122.103","68.254","QAVVIK LAKE","2203341","NT","-27.9","9","NA","-4.9","8","-38.1","6","3.0","28","NA","","","NA","20.0","","","","NA","1009.2","0.0"
"-127.209","61.963","RABBIT KETTLE","2203342","NT","-29.2","3","NA","-2.2","3","-46.9","2","29.0","18","NA","","","NA","48.0","","","","NA","1321.0","0.0"
"-117.328","64.112","RAE LAKES","2203359","NT","-27.2","0","NA","0.3","0","-46.9","0","","","NA","","","NA","","","","","NA","1402.2","0.0"
"-133.017","69.433","TUKTOYAKTUK","2203914","NT","-25.1","0","NA","4.0","0","-37.9","0","","","NA","","","NA","","","","","NA","1336.0","0.0"
"-122.359","69.199","TUKTUT NOGAIT","2203918","NT","-24.8","0","NA","0.2","0","-38.1","0","10.0","23","NA","","","NA","18.0","","","","NA","1325.3","0.0"
"-123.437","63.209","WRIGLEY A","2204000","NT","-28.4","22","NA","-11.0","22","-47.5","22","4.5","22","NA","4.5","22","NA","","2","","","NA","418.0","0.0"
"-114.440","62.463","YELLOWKNIFE A","2204100","NT","-25.6","0","0.0","-1.6","0","-44.6","0","27.2","0","138.0","19.4","0","136.0","49.0","6","","","NA","1352.9","0.0"
"-114.383","62.450","YELLOWKNIFE-HENDERSON","2204110","NT","-24.9","0","NA","-2.0","0","-43.5","0","19.8","0","NA","19.8","0","NA","55.0","5","","","NA","1328.9","0.0"
"-123.742","61.242","YOHIN","2204300","NT","-11.9","13","NA","15.3","12","-30.4","12","22.0","25","NA","","","NA","44.0","","","","NA","538.4","0.0"
"-130.911","69.604","LIVERPOOL BAY","220B68C","NT","-25.6","0","NA","4.3","0","-37.8","0","","","NA","","","NA","","","","","NA","1351.8","0.0"
"-130.228","67.179","LITTLE CHICAGO","220B6Q3","NT","-30.9","0","NA","2.3","0","-46.2","0","","","NA","","","NA","","","","","NA","1516.4","0.0"
"-121.239","60.441","TROUT LAKE","220CQHR","NT","-7.8","20","NA","11.2","20","-31.5","19","","","NA","","","NA","","","","","NA","283.9","0.0"
"-110.682","62.419","LUTSELK'E A","220L001","NT","-25.1","12","NA","-4.4","12","-43.8","10","6.6","10","NA","6.6","10","NA","23.0","2","","","NA","818.8","0.0"
"-110.690","62.416","LUTSELK'E CS","220L002","NT","-25.3","0","NA","1.9","0","-42.6","0","13.0","25","NA","","","NA","20.0","","","","NA","1341.2","0.0"
"-122.851","61.125","LINDBURG LANDING","220N003","NT","-23.6","0","NA","13.4","0","-45.6","0","","","NA","15.9","4","NA","","4","","","NA","1291.0","0.0"
"-113.863","63.603","LOWER CARP LAKE","220N004","NT","-24.2","6","NA","-0.7","5","-44.4","5","","","NA","","","NA","","","","","NA","1054.3","0.0"
"-133.502","68.746","TRAIL VALLEY","220N005","NT","-23.9","1","NA","5.1","1","-39.0","0","","","NA","","","NA","","","","","NA","1256.5","0.0"
"-94.067","61.100","ARVIAT AWOS","2300426","NU","-25.4","1","NA","-6.2","1","-39.2","0","","","NA","","","NA","","","","","NA","1301.0","0.0"
"-96.078","64.299","BAKER LAKE A","2300500","NU","-27.1","2","4.2","-6.8","2","-40.2","2","7.0","2","NA","7.0","2","NA","25.0","3","","","NA","1307.8","0.0"
"-96.000","64.317","BAKER LAKE CLIMATE","2300501","NU","-28.7","17","NA","-13.4","17","-40.7","17","5.0","28","NA","","","NA","","","","","NA","653.5","0.0"
"-115.144","67.817","KUGLUKTUK A","2300902","NU","-23.9","0","3.4","0.2","0","-41.9","0","11.7","0","60.0","5.2","0","50.0","11.0","3","","","NA","1299.7","0.0"
"-115.135","67.817","KUGLUKTUK CLIMATE","2300904","NU","-23.8","0","NA","0.2","0","-39.9","0","","","NA","5.7","0","NA","16.0","2","","","NA","1296.7","0.0"
"-94.067","61.100","ARVIAT A","2300MKF","NU","-23.9","3","5.4","-6.5","3","-38.5","3","12.8","3","NA","12.8","3","NA","14.0","3","","","NA","1172.6","0.0"
"-83.359","64.193","CORAL HARBOUR A","2301000","NU","-26.1","0","3.6","-7.5","0","-39.1","0","22.0","0","229.0","22.0","0","233.0","28.0","6","","","NA","1365.8","0.0"
"-100.884","61.132","ENNADAI LAKE (AUT)","2301102","NU","-26.3","1","NA","-3.0","1","-38.6","0","","","NA","6.3","5","NA","","3","","","NA","1329.3","0.0"
"-94.067","61.100","ARVIAT CLIMATE","2301153","NU","-25.6","0","NA","-6.4","0","-38.9","0","","","NA","47.4","0","NA","","19","","","NA","1351.9","0.0"
"-95.850","68.636","GJOA HAVEN A","2302335","NU","-29.1","11","4.7","-12.4","11","-37.2","11","5.0","11","NA","5.0","11","NA","","2","","","NA","941.4","0.0"
"-95.850","68.636","GJOA HAVEN CLIMATE","2302340","NU","-29.5","0","NA","-8.5","0","-38.5","0","32.0","24","NA","3.9","1","NA","56.0","0","","","NA","1472.5","0.0"
"-100.087","68.318","HAT ISLAND","2302370","NU","-27.9","0","NA","-7.4","0","-36.9","0","","","NA","","","NA","","","","","NA","1422.1","0.0"
"-89.797","68.541","KUGAARUK A","2303092","NU","-28.8","1","4.7","-13.0","1","-42.5","1","20.2","1","NA","20.2","1","NA","16.0","5","","","NA","1404.6","0.0"
"-89.726","68.437","CAM FOUR","2303093","NU","-27.6","4","NA","-15.2","4","-37.2","3","","","NA","","","NA","","","","","NA","1231.5","0.0"
"-89.796","68.538","KUGAARUK CLIMATE","2303094","NU","-28.7","0","NA","-13.0","0","-42.6","0","","","NA","7.0","0","NA","2.0","2","","","NA","1447.3","0.0"
"-92.117","62.817","RANKIN INLET A","2303401","NU","-26.6","0","4.3","-8.7","0","-39.5","0","10.8","0","122.0","10.8","0","124.0","39.0","5","","","NA","1381.6","0.0"
"-102.429","65.100","ROBERTSON LAKE (AUT)","2303610","NU","-28.0","0","NA","-4.7","0","-42.0","0","","","NA","10.5","5","NA","","4","","","NA","1425.2","0.0"
"-93.433","68.817","SHEPHERD BAY A","2303685","NU","-31.0","0","NA","-10.7","0","-41.2","0","","","NA","","","NA","","","","","NA","1518.0","0.0"
"-92.598","62.240","WHALE COVE A","2303986","NU","-24.9","1","5.7","-8.0","1","-43.5","1","36.2","1","NA","36.2","1","NA","37.0","5","","","NA","1286.6","0.0"
"-119.219","69.276","CROKER RIVER","230J01Q","NU","-21.8","0","NA","4.6","0","-34.9","0","","","NA","","","NA","","","","","NA","1234.8","0.0"
"-111.246","65.755","LUPIN CS","230N002","NU","-26.7","10","NA","-3.6","8","-41.1","9","10.0","27","NA","5.5","12","NA","","2","","","NA","938.2","0.0"
"-62.333","82.500","ALERT CLIMATE","2400305","NU","-26.9","0","NA","-2.8","0","-37.1","0","","","NA","12.5","0","NA","","4","","","NA","1391.5","0.0"
"-62.333","82.500","ALERT UA","2400306","NU","","","NA","","","","","10.2","1","NA","6.8","1","NA","38.0","3","","","NA","",""
"-85.012","72.993","ARCTIC BAY CS","2400404","NU","-27.1","7","NA","-6.4","6","-35.5","4","","","NA","2.6","18","NA","","1","","","NA","1083.1","0.0"
"-64.146","63.340","BREVOORT ISLAND","2400565","NU","-20.0","0","NA","-1.8","0","-42.4","0","","","NA","","","NA","","","","","NA","1178.2","0.0"
"-63.789","67.536","FOX FIVE","2400570","NU","-21.4","2","NA","-1.2","2","-30.1","1","","","NA","","","NA","","","","","NA","1143.6","0.0"
"-64.031","67.546","QIKIQTARJUAQ AWOS","2400571","NU","-24.0","0","NA","-9.6","0","-35.1","0","","","NA","","","NA","","","","","NA","1303.2","0.0"
"-64.031","67.546","QIKIQTARJUAQ A","2400572","NU","-24.1","0","NA","-9.5","0","-35.0","0","5.0","0","NA","5.0","0","NA","80.0","3","","","NA","1305.7","0.0"
"-64.033","67.547","QIKIQTARJUAQ CLIMATE","2400573","NU","-24.0","0","NA","-9.6","0","-35.5","0","","","NA","3.4","0","NA","","0","","","NA","1301.0","0.0"
"-105.138","69.108","CAMBRIDGE BAY A","2400600","NU","-27.9","0","4.0","-7.4","0","-39.2","0","11.6","0","174.0","11.0","0","189.0","23.0","3","","","NA","1424.4","0.0"
"-105.138","69.108","CAMBRIDGE BAY GSN","2400602","NU","-27.8","0","NA","-7.2","0","-39.1","0","11.0","27","NA","8.5","0","NA","4.0","3","","","NA","1419.2","0.0"
"-76.527","64.230","CAPE DORSET AWOS","2400634","NU","-21.5","0","NA","-7.2","0","-29.8","0","","","NA","","","NA","","","","","NA","1225.6","0.0"
"-76.525","64.230","CAPE DORSET A","2400635","NU","-22.1","15","2.9","-7.1","15","-34.8","15","15.4","15","NA","15.4","15","NA","","3","","","NA","640.9","0.0"
"-76.531","64.231","CAPE DORSET CLIMATE","2400636","NU","-21.4","0","NA","-7.1","0","-29.8","0","","","NA","13.0","0","NA","","6","","","NA","1222.2","0.0"
"-66.815","68.473","CAPE HOOPER","2400660","NU","-22.6","0","NA","-8.7","0","-30.4","0","","","NA","","","NA","","","","","NA","1260.1","0.0"
"-107.823","69.036","CAPE PEEL WEST","2400697","NU","-27.5","0","NA","-5.4","0","-36.8","0","","","NA","","","NA","","","","","NA","1409.4","0.0"
"-68.517","70.486","CLYDE AWOS","2400801","NU","-24.9","0","NA","-10.2","0","-36.5","0","","","NA","","","NA","","","","","NA","1331.3","0.0"
"-68.517","70.483","CLYDE RIVER CLIMATE","2400802","NU","-25.2","0","NA","-10.4","0","-36.8","0","2.0","30","NA","","","NA","48.0","","","","NA","1340.2","0.0"
"-63.578","64.958","CAPE MERCY","2400F63","NU","-18.3","0","NA","-2.5","0","-31.9","0","","","NA","","","NA","","","","","NA","1124.6","0.0"
"-71.167","68.650","DEWAR LAKES","2401030","NU","-21.9","0","NA","-7.2","0","-34.1","0","","","NA","","","NA","","","","","NA","1238.3","0.0"
"-85.933","79.983","EUREKA","2401200","NU","-34.0","0","2.6","-13.0","0","-43.1","0","2.2","0","70.0","0.6","0","23.0","3.0","0","","","NA","1610.8","0.0"
"-82.900","76.417","GRISE FIORD","2402346","NU","-30.9","17","NA","-18.0","17","-40.0","17","0.0","17","NA","0.0","17","NA","","0","","","NA","684.5","0.0"
"-81.243","68.776","HALL BEACH A","2402350","NU","-27.0","0","4.8","-11.9","0","-38.3","0","12.4","0","169.0","12.4","0","202.0","19.0","5","","","NA","1395.5","0.0"
"-82.902","76.423","GRISE FIORD CLIMATE","2402351","NU","-28.9","0","NA","-0.6","0","-39.3","0","25.0","29","NA","25.1","0","NA","","6","","","NA","1453.4","0.0"
"-81.244","68.776","HALL BEACH AWOS","2402352","NU","-27.6","0","NA","-12.4","0","-38.2","0","","","NA","","","NA","","","","","NA","1412.4","0.0"
"-81.244","68.776","HALL BEACH CLIMATE","2402353","NU","-27.6","0","NA","-12.4","0","-38.5","0","","","NA","2.6","2","NA","","1","","","NA","1413.3","0.0"
"-81.817","69.367","IGLOOLIK A","2402543","NU","-27.3","1","4.3","-15.5","1","-36.0","1","9.6","1","NA","9.6","1","NA","","4","","","NA","1359.6","0.0"
"-68.550","63.750","IQALUIT AWOS","2402591","NU","-24.4","0","NA","-3.5","0","-36.0","0","","","NA","","","NA","","","","","NA","1314.6","0.0"
"-68.544","63.747","IQALUIT CLIMATE","2402592","NU","-24.4","0","NA","-3.5","0","-36.4","0","","","NA","1.6","0","NA","","0","","","NA","1315.6","0.0"
"-68.550","63.750","IQALUIT UA","2402594","NU","","","NA","","","","","4.3","4","NA","4.3","4","NA","","3","","","NA","",""
"-103.554","78.792","ISACHSEN (AUT)","2402604","NU","-28.8","7","NA","-16.2","7","-36.5","6","4.0","27","NA","0.0","10","NA","","0","","","NA","1124.2","0.0"
"-75.141","68.899","LONGSTAFF BLUFF","2402684","NU","-25.0","0","NA","-7.8","0","-37.2","0","","","NA","","","NA","","","","","NA","1333.4","0.0"
"-84.617","72.983","NANISIVIK A","2402730","NU","-26.6","17","3.0","-12.5","17","-33.5","17","1.4","17","NA","1.4","17","NA","","1","","","NA","624.5","0.0"
"-65.711","66.143","PANGNIRTUNG","2403049","NU","-23.6","0","NA","2.0","0","-34.1","0","","","NA","23.0","1","NA","","2","","","NA","1289.1","0.0"
"-65.714","66.145","PANGNIRTUNG A","2403053","NU","-23.2","10","NA","2.5","10","-33.9","10","19.6","10","NA","21.4","10","NA","","2","","","NA","864.5","0.0"
"-77.969","72.689","POND INLET A","2403201","NU","","","","","","","","0.0","0","0.0","0.0","0","0.0","15.0","0","","","NA","",""
"-77.969","72.689","POND INLET AWOS","2403202","NU","-29.9","0","NA","-8.3","0","-38.2","0","","","NA","","","NA","","","","","NA","1486.4","0.0"
"-77.958","72.693","POND INLET CLIMATE","2403204","NU","-29.9","0","NA","-8.3","0","-38.3","0","","","NA","1.7","1","NA","","1","","","NA","1486.0","0.0"
"-105.715","75.377","REA POINT","2403450","NU","-28.1","0","NA","-15.2","0","-39.6","0","","","NA","","","NA","","","","","NA","1428.8","0.0"
"-86.225","66.521","REPULSE BAY A","2403490","NU","-27.3","0","4.0","-13.2","0","-37.0","0","48.7","0","260.0","48.7","0","264.0","10.0","14","","","NA","1403.6","0.0"
"-94.986","74.717","RESOLUTE CARS","2403500","NU","-28.9","0","3.1","-10.5","0","-37.5","0","9.8","0","203.0","9.8","0","232.0","15.0","4","","","NA","1453.6","0.0"
"-94.983","74.716","RESOLUTE CS","2403505","NU","-28.5","0","NA","-10.4","0","-37.6","0","8.0","26","NA","","","NA","2.0","","","","NA","1442.1","0.0"
"-64.633","61.600","RESOLUTION ISLAND","2403602","NU","-18.8","0","NA","-9.6","0","-30.1","0","","","NA","","","NA","","","","","NA","1141.0","0.0"
"-79.033","69.083","ROWLEY ISLAND","2403625","NU","-24.7","0","NA","-12.1","0","-34.2","0","","","NA","","","NA","","","","","NA","1322.9","0.0"
"-105.296","73.766","STEFANSSON ISLAND","2403756","NU","-28.3","0","NA","-13.0","0","-38.6","0","","","NA","73.9","3","NA","","11","","","NA","1436.7","0.0"
"-93.577","69.547","TALOYOAK A","2403854","NU","-30.1","0","3.6","-12.6","0","-40.1","0","10.8","0","117.0","8.0","0","95.0","21.0","4","","","NA","1490.8","0.0"
"-89.446","65.879","WAGER BAY (AUT)","2403945","NU","-26.0","0","NA","-9.0","0","-35.8","0","","","NA","9.6","0","NA","","4","","","NA","1364.4","0.0"
"-119.989","74.139","AULAVIK NATIONAL PARK","2500440","NT","-28.1","0","NA","-3.3","0","-39.7","0","19.0","25","NA","","","NA","27.0","","","","NA","1428.9","0.0"
"-117.800","70.761","HOLMAN CS","2502505","NT","-27.0","0","NA","-6.0","0","-39.0","0","","","NA","8.7","7","NA","12.0","3","","","NA","1393.9","0.0"
"-125.254","71.993","SACHS HARBOUR CLIMATE","2503648","NT","-28.1","0","NA","-4.7","0","-40.0","0","","","NA","5.9","0","NA","","2","","","NA","1429.4","0.0"
"-119.538","73.231","THOMSEN RIVER","2503886","NT","-31.4","0","NA","-1.2","0","-45.3","0","30.0","23","NA","","","NA","22.0","","","","NA","1530.9","0.0"
"-112.967","54.283","ABEE AGDM","3010010","AB","-15.5","0","NA","8.0","0","-44.6","0","","","NA","16.7","4","NA","","7","","","NA","1039.4","0.0"
"-111.181","53.113","ALBERT HALL AGCM","3010060","AB","-13.2","2","NA","7.8","2","-37.2","1","","","NA","8.6","9","NA","","5","","","NA","905.6","0.0"
"-111.779","52.315","ALLIANCE AGCM","3010162","AB","-10.4","1","NA","8.3","1","-36.2","0","","","NA","4.3","8","NA","","2","","","NA","851.8","0.0"
"-112.233","54.017","ANDREW","3010234","AB","-16.5","14","-3.1","4.0","14","-42.0","14","19.0","14","NA","19.0","14","NA","","5","","","NA","587.0","0.0"
"-112.279","53.917","ANDREW AGDM","3010237","AB","-15.7","0","NA","5.4","0","-42.9","0","","","NA","12.0","5","NA","","5","","","NA","1046.1","0.0"
"-111.465","52.582","BELLSHILL AGCM","3010650","AB","-12.8","0","NA","6.8","0","-35.7","0","","","NA","5.6","6","NA","","1","","","NA","956.2","0.0"
"-110.101","52.124","BODO AGDM","3010730","AB","-13.1","0","NA","8.4","0","-35.7","0","","","NA","3.9","4","NA","","1","","","NA","964.3","0.0"
"-114.483","53.167","BRETON","3010815","AB","-9.5","0","NA","10.0","0","-34.0","0","27.0","0","NA","0.0","0","NA","35.0","0","","","NA","851.5","0.0"
"-114.441","53.089","BRETON PLOTS","3010816","AB","-8.1","0","NA","16.4","0","-35.6","0","","","NA","16.7","0","NA","","7","","","NA","809.7","0.0"
"-113.717","52.983","BRIGHTVIEW","3010830","AB","-10.4","3","-0.2","13.5","3","-37.0","3","25.6","3","NA","25.6","3","NA","","8","","","NA","796.2","0.0"
"-111.469","52.319","BROWNFIELD","3010890","AB","-12.5","0","-0.2","10.0","0","-38.0","0","4.5","0","20.0","4.5","0","18.0","3.0","3","","","NA","946.5","0.0"
"-113.889","53.997","BUSBY","3010978","AB","-10.8","3","NA","12.0","3","-37.5","2","22.2","2","NA","22.2","2","NA","29.0","10","","","NA","807.7","0.0"
"-113.922","53.931","BUSBY AGCM","3010979","AB","-12.1","1","NA","9.1","1","-39.5","0","","","NA","7.4","10","NA","","2","","","NA","901.8","0.0"
"-110.510","52.334","CADOGAN AGCM","3010992","AB","-12.8","3","NA","7.3","3","-36.0","0","","","NA","4.0","9","NA","","2","","","NA","863.3","0.0"
"-112.817","53.050","CAMROSE","3011240","AB","-12.4","0","-0.9","7.8","0","-40.5","0","","","NA","8.2","0","36.0","4.0","1","","","NA","943.3","0.0"
"-112.800","52.950","CAMROSE 2","3011241","AB","-14.9","9","NA","7.0","5","-39.0","6","10.5","0","NA","10.5","0","NA","0.0","4","","","NA","723.8","0.0"
"-114.654","53.234","CARNWOOD","3011350","AB","-11.0","2","NA","15.0","2","-39.0","2","25.0","2","NA","25.0","2","NA","27.0","7","","","NA","839.6","0.0"
"-111.250","53.550","CHAILEY","3011474","AB","-13.6","8","-0.2","16.0","8","-39.5","8","10.5","8","NA","10.5","8","NA","22.0","3","","","NA","725.9","0.0"
"-110.713","51.937","CONSORT AGDM","3011815","AB","-12.7","0","NA","7.5","0","-34.0","0","","","NA","2.5","3","NA","","1","","","NA","952.6","0.0"
"-111.449","52.074","CORONATION CLIMATE","3011887","AB","-13.4","0","NA","5.4","0","-38.4","0","5.0","27","NA","5.6","0","NA","","3","","","NA","974.4","0.0"
"-113.903","52.733","CRESTOMERE AGCM","3011892","AB","-7.8","21","NA","9.0","21","-39.4","1","","","NA","3.2","26","NA","","2","","","NA","258.2","0.0"
"-113.950","52.750","DAKOTA WEST","3011953","AB","-8.2","0","1.6","14.5","0","-38.0","0","17.8","0","82.0","17.8","0","79.0","12.0","5","","","NA","813.0","0.0"
"-113.176","52.183","DELBURNE AGCM","3012050","AB","-10.1","1","NA","12.5","1","-34.2","0","","","NA","4.2","8","NA","","2","","","NA","844.1","0.0"
"-112.351","52.517","DONALDA SOUTH","3012095","AB","-11.0","0","NA","8.5","0","-42.0","0","11.5","0","NA","13.3","0","NA","2.0","4","","","NA","897.9","0.0"
"-110.433","52.778","EDGERTON AGCM","3012192","AB","-11.9","5","NA","7.5","4","-30.8","3","","","NA","5.9","15","NA","","3","","","NA","777.8","0.0"
"-113.521","53.573","EDMONTON CITY CENTRE AWOS","3012202","AB","-10.5","0","NA","9.3","0","-33.3","0","","","NA","18.5","1","NA","","9","","","NA","884.4","0.0"
"-113.583","53.317","EDMONTON INT'L A","3012205","AB","-13.2","0","-1.1","6.9","0","-41.9","0","17.8","0","82.0","18.8","0","90.0","18.0","7","","","NA","966.4","0.0"
"-113.606","53.307","EDMONTON INTERNATIONAL CS","3012206","AB","-13.1","0","NA","7.3","0","-42.2","0","23.0","23","NA","7.6","0","NA","14.0","2","","","NA","963.0","0.0"
"-113.517","53.573","EDMONTON BLATCHFORD","3012209","AB","-10.6","0","NA","9.0","0","-33.0","0","","","NA","","","NA","17.0","","","","NA","885.4","0.0"
"-113.467","53.667","EDMONTON NAMAO AWOS A","3012212","AB","-12.4","0","NA","7.9","0","-38.7","0","","","NA","16.0","0","NA","","6","","","NA","942.2","0.0"
"-114.108","53.548","EDMONTON STONY PLAIN","301222F","AB","-9.9","0","0.0","10.8","0","-34.5","0","35.6","0","150.0","28.6","0","133.0","20.0","7","","","NA","866.2","0.0"
"-113.750","53.417","EDMONTON WOODBEND","3012230","AB","-11.1","0","-0.1","10.0","0","-40.0","0","24.1","0","102.0","24.3","0","98.0","22.0","10","","","NA","903.6","0.0"
"-113.364","53.660","EDMONTON GARRISON","3012233","AB","","","NA","","","","","42.0","15","NA","42.0","15","NA","","8","","","NA","",""
"-113.619","53.471","EDMONTON SMITH WATER TREATMENT","3012234","AB","","","NA","","","","","16.0","24","NA","16.0","24","NA","","5","","","NA","",""
"-112.868","53.683","ELK ISLAND NAT PARK","3012275","AB","-12.2","0","-0.2","11.4","0","-40.9","0","14.0","24","NA","40.9","0","225.0","28.0","7","","","NA","936.7","0.0"
"-111.000","52.967","FABYAN","3012515","AB","-14.3","2","-0.2","8.0","2","-38.0","1","17.8","2","NA","17.8","2","NA","0.0","4","","","NA","937.6","0.0"
"-112.858","52.744","FERINTOSH AGCM","3012590","AB","-9.8","4","NA","8.3","3","-34.0","4","","","NA","11.3","7","NA","","2","","","NA","751.5","0.0"
"-112.120","52.467","FORESTBURG PLANT SITE","3012652","AB","-9.9","0","0.3","8.5","0","-37.5","0","6.4","0","40.0","8.2","0","49.0","0.0","4","","","NA","864.4","0.0"
"-112.123","52.548","FORESTBURG AGCM","3012653","AB","-9.3","4","NA","8.1","4","-37.0","1","","","NA","2.4","17","NA","","1","","","NA","735.8","0.0"
"-113.183","53.717","FORT SASKATCHEWAN","3012710","AB","-13.8","5","-1.8","8.0","5","-40.5","5","30.5","5","NA","30.5","5","NA","","8","","","NA","826.5","0.0"
"-110.621","53.071","GILT EDGE NORTH AGCM","3012790","AB","-14.5","0","NA","8.3","0","-37.8","0","","","NA","9.4","5","NA","","5","","","NA","1006.9","0.0"
"-114.539","53.833","GLENEVIS AGCM","3012818","AB","-10.3","0","NA","12.7","0","-38.3","0","","","NA","14.2","5","NA","","5","","","NA","877.8","0.0"
"-112.164","52.116","HALKIRK AGCM","3012999","AB","-10.7","2","NA","6.7","2","-35.8","1","","","NA","6.4","7","NA","","2","","","NA","833.7","0.0"
"-111.212","51.780","HEMARUKA AGCM","3013140","AB","-13.4","0","NA","6.3","0","-39.5","0","","","NA","3.4","2","NA","","0","","","NA","974.4","0.0"
"-112.246","53.185","HOLDEN AGDM","3013340","AB","-13.5","0","NA","7.8","0","-40.2","0","","","NA","20.8","2","NA","","9","","","NA","976.5","0.0"
"-110.784","52.578","HUGHENDEN AGCM","3013362","AB","-13.9","0","NA","6.2","0","-37.5","0","","","NA","5.5","3","NA","","2","","","NA","987.5","0.0"
"-111.083","52.467","HUGHENDEN SW","3013363","AB","","","NA","","","","","4.0","30","NA","4.0","30","NA","","1","","","NA","",""
"-111.872","52.848","KILLAM AGDM","3013640","AB","-13.7","0","NA","6.9","0","-39.8","0","","","NA","22.9","4","NA","","11","","","NA","983.0","0.0"
"-111.113","52.290","KESSLER AGCM","3013644","AB","-11.5","4","NA","8.7","4","-37.8","0","","","NA","5.3","12","NA","","2","","","NA","796.1","0.0"
"-110.416","53.353","KITSCOTY AGCM","3013660","AB","-14.1","6","NA","5.6","6","-36.9","0","","","NA","9.1","19","NA","","4","","","NA","802.5","0.0"
"-113.474","54.003","LEGAL AGCM","3013790","AB","-12.3","1","NA","7.9","1","-38.8","0","","","NA","13.6","3","NA","","5","","","NA","908.6","0.0"
"-110.579","53.943","LINDBERGH AGDM","3013921","AB","-15.8","0","NA","9.2","0","-41.1","0","","","NA","35.4","9","NA","","12","","","NA","1047.6","0.0"
"-110.073","53.309","LLOYDMINSTER A","3013961","AB","-15.5","0","-1.3","5.8","0","-37.0","0","27.4","0","161.0","27.0","0","171.0","30.0","8","","","NA","1039.7","0.0"
"-112.267","53.083","HOLDEN SOUTH","3013C44","AB","","","NA","","","","","14.0","1","NA","16.0","1","NA","0.0","6","","","NA","",""
"-111.255","53.456","MANNVILLE AGCM","3014195","AB","-13.9","0","NA","9.9","0","-38.1","0","","","NA","8.4","6","NA","","2","","","NA","989.9","0.0"
"-110.550","52.017","MONITOR","3014600","AB","","","NA","","","","","9.0","0","50.0","10.2","0","53.0","0.0","3","","","NA","",""
"-112.300","53.567","MUNDARE AGDM","3014665","AB","-12.6","0","NA","9.1","0","-38.3","0","","","NA","20.5","9","NA","","5","","","NA","948.4","0.0"
"-111.114","53.720","MYRNAM AGCM","3014690","AB","-15.8","2","NA","8.7","2","-42.8","1","","","NA","18.0","8","NA","","5","","","NA","979.3","0.0"
"-113.165","53.262","NEW SEREPTA AGCM","3014795","AB","-12.1","0","NA","9.5","0","-38.6","0","","","NA","10.5","4","NA","","2","","","NA","932.6","0.0"
"-113.350","53.650","OLIVER AGDM","3014921","AB","-12.1","0","NA","10.3","0","-42.3","0","","","NA","43.7","4","NA","","14","","","NA","933.2","0.0"
"-112.879","53.995","RADWAY AGCM","3015346","AB","-13.7","2","NA","7.3","2","-38.7","1","","","NA","94.1","7","NA","","17","","","NA","919.5","0.0"
"-111.733","53.417","RANFURLY 2NW","3015405","AB","-13.4","0","0.3","23.5","0","-41.0","0","36.0","0","171.0","36.0","0","164.0","25.0","7","","","NA","974.5","0.0"
"-110.343","52.587","RIBSTONE SOUTH AGCM","3015480","AB","-13.1","3","NA","7.7","3","-34.5","3","","","NA","12.3","9","NA","","4","","","NA","869.8","0.0"
"-110.102","53.019","RIVERCOURSE AGCM","3015501","AB","-15.5","0","NA","5.8","0","-38.0","0","","","NA","12.3","5","NA","","5","","","NA","1039.7","0.0"
"-114.912","52.421","ROCKY MTN HOUSE (AUT)","3015523","AB","-11.4","0","NA","11.6","0","-38.2","0","","","NA","14.7","0","NA","","4","","","NA","912.9","0.0"
"-112.428","52.780","ROSALIND AGCM","3015600","AB","-12.1","2","NA","6.2","1","-37.9","1","","","NA","10.8","9","NA","","3","","","NA","873.4","0.0"
"-111.450","54.300","ST LINA","3015672","AB","-15.1","0","-0.7","11.0","0","-40.0","0","29.2","0","124.0","29.2","0","123.0","","10","","","NA","1026.9","0.0"
"-111.453","54.282","ST. LINA AGCM","3015673","AB","-14.1","6","NA","10.9","6","-35.0","6","","","NA","13.0","14","NA","","4","","","NA","802.2","0.0"
"-111.272","54.011","ST. PAUL AGCM","3015676","AB","-16.3","0","NA","4.9","0","-41.6","0","","","NA","29.0","4","NA","","11","","","NA","1064.5","0.0"
"-110.755","51.590","SEDALIA AGCM","3015797","AB","-13.9","2","NA","5.2","2","-37.1","0","","","NA","1.7","8","NA","","0","","","NA","925.7","0.0"
"-111.700","52.783","SEDGEWICK TOWN","3015808","AB","-8.0","13","5.4","8.0","13","-29.0","11","11.0","13","NA","11.0","13","NA","0.0","4","","","NA","468.7","0.0"
"-112.539","53.333","SHONTS AGCM","3015900","AB","-13.0","0","NA","9.0","0","-41.8","0","","","NA","9.1","5","NA","","3","","","NA","962.4","0.0"
"-112.499","54.278","SMOKY LAKE AGDM","3016022","AB","-14.8","0","NA","8.8","0","-43.0","0","","","NA","100.7","6","NA","","16","","","NA","1017.0","0.0"
"-111.683","51.816","SPONDIN AGCM","3016070","AB","-10.4","3","NA","6.6","3","-36.6","3","","","NA","0.4","12","NA","","0","","","NA","794.8","0.0"
"-112.596","52.347","STETTLER AGDM","3016124","AB","-10.9","0","NA","6.4","0","-34.1","0","","","NA","6.7","4","NA","","2","","","NA","896.8","0.0"
"-113.895","53.217","THORSBY AGCM","3016441","AB","-10.3","8","NA","8.9","8","-39.3","4","","","NA","6.2","21","NA","","2","","","NA","650.8","0.0"
"-112.750","53.550","TOFIELD NORTH","3016494","AB","-11.1","0","-0.5","10.5","0","-40.0","0","21.0","0","110.0","22.0","0","111.0","0.0","10","","","NA","903.6","0.0"
"-114.718","53.439","TOMAHAWK AGDM","3016505","AB","-9.7","0","NA","15.9","0","-35.0","0","","","NA","11.2","10","NA","","4","","","NA","859.6","0.0"
"-110.081","53.664","TULLIBY LAKE AGCM","3016593","AB","-17.5","0","NA","6.1","0","-42.3","0","","","NA","7.9","10","NA","","2","","","NA","1100.1","0.0"
"-113.033","53.500","UNCAS","3016650","AB","","","NA","","","","","26.7","0","NA","30.4","0","NA","35.0","11","","","NA","",""
"-111.678","53.625","TWO HILLS AGDM","3016655","AB","-13.9","0","NA","5.6","0","-36.8","0","","","NA","11.5","2","NA","","3","","","NA","990.0","0.0"
"-110.882","53.344","VERMILION AGDM","3016802","AB","-15.1","0","NA","7.0","0","-39.2","0","","","NA","12.8","5","NA","","5","","","NA","1027.0","0.0"
"-111.732","53.182","VIKING AGCM","3016841","AB","-12.6","4","NA","6.5","4","-36.7","2","","","NA","5.5","10","NA","","2","","","NA","825.8","0.0"
"-111.767","53.283","VIKING NORTH 3","3016845","AB","-13.9","0","NA","5.0","0","-38.5","0","21.0","0","NA","7.0","0","NA","41.0","1","","","NA","989.4","0.0"
"-111.921","54.130","VILNA AGCM","3016852","AB","-15.2","0","NA","6.0","0","-44.0","0","","","NA","17.0","4","NA","","5","","","NA","1028.4","0.0"
"-115.126","53.144","VIOLET GROVE CS","3016860","AB","-7.9","0","NA","14.9","0","-34.4","0","46.0","19","NA","15.2","0","NA","16.0","5","","","NA","802.0","0.0"
"-112.098","53.505","VEGREVILLE","3016GF0","AB","-14.7","0","-1.4","7.8","0","-42.7","0","","","NA","19.3","0","128.0","21.0","4","","","NA","1013.8","0.0"
"-113.444","52.980","WETASKIWIN AGCM","3017282","AB","-10.8","1","NA","9.7","1","-40.0","0","","","NA","10.2","10","NA","","4","","","NA","862.6","0.0"
"-114.108","53.547","EDMONTON STONY PLAIN CS","301A001","AB","-10.0","0","NA","11.0","0","-34.3","0","","","NA","20.6","0","NA","19.0","6","","","NA","867.1","0.0"
"-110.206","51.670","ESTHER 1","301B460","AB","-12.3","0","NA","7.1","0","-36.8","0","","","NA","2.0","0","NA","","0","","","NA","938.0","0.0"
"-115.200","52.400","HORBURG","301C3D4","AB","-3.2","0","4.4","25.0","0","-31.0","0","10.7","0","38.0","10.8","0","39.0","0.0","3","","","NA","657.7","0.0"
"-113.533","53.517","UNIVERSITY OF ALBERTA METABOLIC CENTRE","301FFNJ","AB","-9.4","11","2.2","9.0","7","-34.0","7","20.5","6","NA","20.5","0","141.0","0.0","7","","","NA","548.7","0.0"
"-111.096","52.829","WAINWRIGHT CFB AIRFIELD 21","301S001","AB","-14.2","0","NA","7.5","0","-40.2","0","","","NA","5.4","0","NA","","2","","","NA","998.4","0.0"
"-113.357","51.379","BEISEKER AGCM","3020610","AB","-11.4","1","NA","6.7","1","-37.9","0","","","NA","4.7","11","NA","","2","","","NA","882.9","0.0"
"-112.803","51.998","BIG VALLEY AGCM","3020679","AB","-10.8","2","NA","10.5","2","-35.3","0","","","NA","6.7","6","NA","","2","","","NA","834.0","0.0"
"-112.252","51.775","CRAIGMYLE AGCM","3021912","AB","-12.0","2","NA","6.5","2","-36.7","0","","","NA","5.3","6","NA","","1","","","NA","870.8","0.0"
"-112.283","51.767","CRAIGMYLE","3021940","AB","-11.9","0","-0.5","6.0","0","-37.0","0","24.6","0","171.0","24.6","0","171.0","0.0","6","","","NA","926.2","0.0"
"-114.391","52.285","ECKVILLE SOUTH","3022159","AB","-9.5","0","0.6","10.0","0","-35.5","0","20.4","0","97.0","20.4","0","97.0","0.0","5","","","NA","851.9","0.0"
"-112.677","51.445","DRUMHELLER EAST","30221LG","AB","-13.0","0","NA","8.7","0","-37.1","0","","","NA","","","NA","","","","","NA","962.5","0.0"
"-112.189","50.950","GEM","3022772","AB","-11.2","0","0.0","6.0","0","-36.0","0","16.6","0","156.0","16.6","0","146.0","10.0","4","","","NA","906.5","0.0"
"-114.486","52.310","HESPERO AGCM","3023200","AB","-10.8","0","NA","9.4","0","-37.7","0","","","NA","11.0","5","NA","","2","","","NA","892.7","0.0"
"-112.500","51.183","HUSSAR AGDM","3023402","AB","-7.9","4","NA","9.3","3","-26.9","2","","","NA","0.9","8","NA","","0","","","NA","699.0","0.0"
"-113.756","52.449","LACOMBE CDA 2","3023722","AB","-11.2","0","NA","7.9","0","-36.9","0","","","NA","12.5","0","NA","6.0","5","","","NA","903.7","0.0"
"-114.473","52.553","LEEDALE AGDM","3023740","AB","-13.0","1","NA","7.2","1","-38.7","0","","","NA","35.9","6","NA","","13","","","NA","930.3","0.0"
"-113.656","51.619","LINDEN AGCM","3023850","AB","-12.0","0","NA","6.8","0","-38.7","0","","","NA","7.8","4","NA","","2","","","NA","930.5","0.0"
"-112.675","51.660","MORRIN AGDM","3024668","AB","-12.3","0","NA","7.4","0","-35.3","0","","","NA","3.2","5","NA","","1","","","NA","938.2","0.0"
"-114.100","51.783","OLDS","3024920","AB","-6.6","14","2.1","11.0","11","-31.0","9","10.8","11","NA","10.8","11","NA","","2","","","NA","417.9","0.0"
"-114.085","51.759","OLDS AGDM","3024925","AB","-8.0","0","NA","9.4","0","-31.3","0","","","NA","17.2","7","NA","","5","","","NA","804.7","0.0"
"-110.517","51.167","OYEN CAPPON","3024961","AB","-10.5","5","0.9","4.5","3","-35.0","5","2.0","0","20.0","2.0","0","20.0","0.0","1","","","NA","741.2","0.0"
"-110.472","51.353","OYEN CARA","3024962","AB","-12.1","0","NA","7.0","0","-35.0","0","7.0","0","NA","7.0","0","NA","0.0","2","","","NA","933.6","0.0"
"-110.350","51.383","OYEN AGDM","3024965","AB","-11.4","1","NA","6.5","1","-33.8","0","","","NA","59.3","7","NA","","11","","","NA","880.9","0.0"
"-111.705","51.125","POLLOCKVILLE AGDM","3025243","AB","-13.5","0","NA","6.3","0","-38.0","0","","","NA","4.2","4","NA","","2","","","NA","975.7","0.0"
"-113.600","52.433","PRENTISS","3025297","AB","-9.0","0","NA","10.1","0","-31.6","0","","","NA","19.7","4","NA","","8","","","NA","838.5","0.0"
"-113.792","52.311","RED DEER","3025441","AB","-10.6","3","-0.3","11.0","3","-34.5","3","0.0","3","NA","0.0","3","NA","","0","","","NA","800.2","0.0"
"-113.828","52.247","RED DEER CCOC","3025445","AB","","","NA","","","","","14.0","1","NA","14.0","1","NA","15.0","4","","","NA","",""
"-113.893","52.179","RED DEER A","3025480","AB","-11.6","0","0.0","6.6","0","-36.0","0","16.8","1","NA","12.2","0","76.0","6.0","3","","","NA","918.1","0.0"
"-110.091","50.307","SCHULER AGDM","3025768","AB","-11.2","0","NA","4.8","0","-34.1","0","","","NA","2.4","4","NA","","0","","","NA","905.5","0.0"
"-110.146","51.425","SIBBALD WESTGARD","3025928","AB","-12.9","0","NA","6.5","0","-37.0","0","2.0","0","NA","2.0","0","NA","6.0","1","","","NA","958.0","0.0"
"-112.959","51.492","SLEEPY HOLLOW","3026009","AB","-13.9","17","-1.2","5.0","17","-39.5","11","3.0","17","NA","3.0","17","NA","0.0","1","","","NA","446.2","0.0"
"-113.230","51.699","THREE HILLS","3026479","AB","-9.7","0","NA","7.0","0","-33.7","0","","","NA","","","NA","","","","","NA","857.9","0.0"
"-114.683","51.778","SUNDRE A","3026KNQ","AB","-9.5","0","NA","12.1","0","-37.6","0","","","NA","16.0","0","NA","21.0","4","","","NA","851.2","0.0"
"-113.591","51.936","WIMBORNE AGCM","3027582","AB","-10.1","2","NA","12.0","2","-36.9","0","","","NA","5.2","10","NA","","1","","","NA","814.6","0.0"
"-114.013","50.512","AZURE","3030450","AB","-6.9","1","NA","14.2","1","-31.9","0","","","NA","1.9","9","NA","","1","","","NA","746.5","0.0"
"-112.300","49.800","BARNWELL AGDM","3030525","AB","-7.8","0","NA","7.5","0","-29.1","0","","","NA","5.6","6","NA","","2","","","NA","800.0","0.0"
"-113.224","50.026","BARONS AGCM","3030529","AB","-9.5","2","NA","7.0","2","-34.8","2","","","NA","2.4","16","NA","","1","","","NA","797.6","0.0"
"-112.465","50.893","BASSANO AGCM","3030540","AB","-11.9","0","NA","6.5","0","-36.3","0","","","NA","7.3","5","NA","","3","","","NA","928.3","0.0"
"-114.152","50.707","BLACK DIAMOND","3030680","AB","-7.5","1","NA","10.0","1","-34.1","0","","","NA","0.4","11","NA","","0","","","NA","765.9","0.0"
"-113.050","49.567","BLOOD TRIBE AGDM","3030720","AB","-5.6","0","NA","11.0","0","-32.1","0","","","NA","11.4","9","NA","","4","","","NA","730.9","0.0"
"-111.450","49.734","BOW ISLAND","3030768","AB","-8.7","0","NA","7.0","0","-31.7","0","","","NA","11.7","0","NA","","4","","","NA","827.2","0.0"
"-111.383","49.867","BOW ISLAND IRRIGATION AGDM","3030772","AB","-9.3","0","NA","7.6","0","-32.6","0","","","NA","11.0","5","NA","","4","","","NA","845.1","0.0"
"-113.817","49.617","BROCKET AGDM","3030830","AB","-4.4","0","NA","12.9","0","-31.7","0","","","NA","9.0","4","NA","","2","","","NA","693.0","0.0"
"-111.849","50.555","BROOKS","3030QLP","AB","-10.8","0","NA","7.5","0","-35.3","0","","","NA","6.2","0","NA","11.0","2","","","NA","892.6","0.0"
"-114.152","51.038","CALGARY ROSSCARROCK","3031075","AB","","","NA","","","","","10.0","2","NA","10.0","2","NA","2.0","2","","","NA","",""
"-113.988","51.063","CALGARY MARLBOROUGH","3031076","AB","","","NA","","","","","12.0","4","NA","12.0","4","NA","","4","","","NA","",""
"-114.095","51.092","CALGARY NOSE HILL","3031077","AB","","","NA","","","","","5.2","0","NA","5.2","0","NA","5.0","1","","","NA","",""
"-114.060","50.907","CALGARY MIDNAPORE","3031078","AB","","","NA","","","","","8.0","1","NA","8.0","1","NA","1.0","3","","","NA","",""
"-114.020","51.114","CALGARY INT'L A","3031093","AB","-6.2","0","0.9","14.2","0","-29.7","0","14.4","0","94.0","7.4","0","78.0","1.0","3","","","NA","749.9","0.0"
"-114.000","51.109","CALGARY INT'L CS","3031094","AB","-4.4","9","NA","13.3","8","-26.3","9","","","NA","4.3","1","NA","","2","","","NA","493.1","0.0"
"-113.286","49.201","CARDSTON","3031322","AB","-4.2","0","NA","15.7","0","-31.8","0","","","NA","14.6","0","NA","","2","","","NA","688.9","0.0"
"-113.376","49.000","CARWAY","3031400","AB","-4.4","3","0.6","12.0","3","-29.0","3","4.0","3","NA","14.0","3","NA","","3","","","NA","628.3","0.0"
"-113.350","50.282","CHAMPION AGDM","3031480","AB","-9.8","0","NA","7.0","0","-34.2","0","","","NA","22.1","1","NA","","7","","","NA","861.3","0.0"
"-113.639","50.004","CLARESHOLM","3031640","AB","-6.6","0","NA","10.9","0","-34.7","0","","","NA","9.0","1","NA","1.0","2","","","NA","764.1","0.0"
"-114.418","51.243","COCHRANE BIGHILL CREEK","3031678","AB","-18.7","28","NA","-5.6","28","-29.5","27","0.0","28","NA","0.0","28","NA","","0","","","NA","110.0","0.0"
"-114.215","49.616","CONNELLY CREEK","3031805","AB","-5.6","11","-0.2","15.5","8","-31.5","6","14.1","4","NA","14.3","4","NA","3.0","4","","","NA","471.2","0.0"
"-114.222","51.076","COP UPPER","3031875","AB","-4.8","0","NA","12.4","0","-29.4","0","","","NA","","","NA","","","","","NA","707.4","0.0"
"-112.433","50.183","ENCHANT AGDM","3032422","AB","-10.6","0","NA","6.3","0","-33.1","0","","","NA","9.1","5","NA","","4","","","NA","887.4","0.0"
"-111.054","49.553","ETZICOM AGCM","3032450","AB","-10.3","0","NA","7.0","0","-34.4","0","","","NA","7.0","6","NA","","2","","","NA","878.4","0.0"
"-112.033","49.800","FINCASTLE AGDM","3032550","AB","-7.9","1","NA","9.0","1","-28.2","0","","","NA","12.2","3","NA","","4","","","NA","776.2","0.0"
"-111.486","49.483","FOREMOST AGDM","3032642","AB","-7.9","0","NA","6.9","0","-30.9","0","","","NA","16.0","8","NA","","5","","","NA","802.1","0.0"
"-113.379","49.786","FORT MACLEOD AGCM","3032683","AB","-6.3","0","NA","10.2","0","-34.6","0","","","NA","5.2","5","NA","","1","","","NA","754.1","0.0"
"-112.941","50.934","GLEICHEN AGCM","3032801","AB","-9.9","1","NA","5.9","1","-33.3","0","","","NA","13.9","2","NA","","5","","","NA","837.1","0.0"
"-113.524","49.334","GLENWOOD","3032818","AB","-6.2","3","NA","11.9","3","-33.6","0","","","NA","17.5","23","NA","","2","","","NA","678.6","0.0"
"-111.733","49.874","GRASSY LAKE","3032927","AB","-6.3","5","NA","8.3","5","-31.4","0","","","NA","7.7","8","NA","","4","","","NA","633.0","0.0"
"-113.627","49.291","HILL SPRING","3033281","AB","-4.5","2","NA","15.0","2","-33.5","2","27.0","2","NA","27.0","2","NA","0.0","3","","","NA","653.2","0.0"
"-112.733","49.900","IRON SPRINGS AGDM","3033498","AB","-7.6","1","NA","8.2","0","-31.3","1","","","NA","8.9","8","NA","","5","","","NA","767.3","0.0"
"-110.261","49.989","IRVINE AGCM","3033550","AB","-10.1","1","NA","5.9","1","-33.0","0","","","NA","7.6","11","NA","","1","","","NA","842.6","0.0"
"-112.800","49.633","LETHBRIDGE AWOS A","3033884","AB","-5.7","0","NA","11.3","0","-34.6","0","","","NA","6.5","0","NA","","3","","","NA","736.2","0.0"
"-112.768","49.695","LETHBRIDGE CDA","3033890","AB","-4.8","0","NA","12.9","0","-31.5","0","","","NA","0.6","6","NA","","0","","","NA","706.5","0.0"
"-112.783","49.700","LETHBRIDGE CDA 2","3033892","AB","","","NA","","","","","15.0","3","NA","15.0","3","NA","2.0","6","","","NA","",""
"-112.750","49.683","LETHBRIDGE DEMO FARM AGDM","3033897","AB","-3.1","5","NA","11.6","5","-29.8","0","","","NA","7.2","14","NA","","2","","","NA","549.3","0.0"
"-112.783","49.729","LETHBRIDGE CCOC","3033898","AB","","","NA","","","","","5.4","0","NA","5.4","0","NA","1.0","3","","","NA","",""
"-110.721","50.019","MEDICINE HAT AWOS","3034483","AB","-9.7","0","NA","6.2","0","-34.1","0","","","NA","","","NA","","","","","NA","859.1","0.0"
"-110.717","50.025","MEDICINE HAT RCS","3034485","AB","-9.7","0","NA","6.5","0","-34.4","0","","","NA","7.1","0","NA","23.0","3","","","NA","860.0","0.0"
"-110.670","50.044","MEDICINE HAT CCOC","3034488","AB","","","NA","","","","","11.0","1","NA","11.0","1","NA","4.0","4","","","NA","",""
"-113.349","50.673","MOSSLEIGH AGCM","3034577","AB","-10.1","0","NA","6.7","0","-35.4","0","","","NA","3.6","3","NA","","1","","","NA","870.9","0.0"
"-113.161","49.814","MONARCH","3034596","AB","-6.7","0","0.2","11.0","0","-34.0","0","13.8","0","80.0","14.0","0","80.0","23.0","5","","","NA","764.7","0.0"
"-113.594","49.132","MOUNTAIN VIEW VILLAGE","3034725","AB","-4.4","9","NA","18.0","8","-32.5","9","14.0","3","NA","14.0","3","NA","0.0","2","","","NA","493.6","0.0"
"-114.099","51.369","NEIR AGDM","3034795","AB","-6.6","2","NA","11.4","2","-31.4","1","","","NA","3.8","7","NA","","1","","","NA","713.9","0.0"
"-113.997","49.521","PINCHER CREEK (AUT)","3035206","AB","-5.2","0","NA","12.8","0","-33.1","0","","","NA","16.0","0","NA","","5","","","NA","719.1","0.0"
"-112.983","50.606","QUEENSTOWN","3035340","AB","-8.0","0","-0.5","11.5","0","-31.0","0","17.0","0","119.0","17.0","0","118.0","0.0","5","","","NA","806.6","0.0"
"-112.683","49.483","RAYMOND AGDM","3035422","AB","-5.3","1","NA","10.6","1","-33.0","0","","","NA","8.0","6","NA","","3","","","NA","699.5","0.0"
"-111.701","50.265","ROLLING HILLS AGCM","3035530","AB","-11.5","0","NA","6.8","0","-37.0","0","","","NA","4.4","7","NA","","2","","","NA","914.2","0.0"
"-112.050","50.833","ROSEMARY AGDM","3035650","AB","-13.4","0","NA","6.1","0","-38.1","0","","","NA","7.1","5","NA","","2","","","NA","971.9","0.0"
"-110.917","49.917","SEVEN PERSONS AGDM","3035845","AB","-9.0","2","NA","5.7","2","-33.0","0","","","NA","3.8","5","NA","","2","","","NA","782.0","0.0"
"-112.982","51.228","STANDARD AGCM","3036086","AB","-9.1","0","NA","8.3","0","-32.5","0","","","NA","6.0","5","NA","","2","","","NA","841.0","0.0"
"-113.883","50.183","STAVELY AAFC","3036099","AB","-3.5","0","NA","19.7","0","-26.5","0","","","NA","26.6","1","NA","","14","","","NA","665.4","0.0"
"-113.283","51.033","STRATHMORE AGDM","3036205","AB","-8.2","1","NA","9.4","1","-32.8","0","","","NA","29.3","4","NA","","10","","","NA","786.3","0.0"
"-112.124","49.792","TABER","3036360","AB","-6.9","10","NA","9.0","10","-28.0","8","18.0","10","NA","18.0","10","NA","0.0","6","","","NA","522.0","0.0"
"-112.863","50.304","TRAVERS AGCM","3036500","AB","-8.0","0","NA","9.7","0","-30.7","0","","","NA","7.0","2","NA","","4","","","NA","806.0","0.0"
"-112.133","50.050","VAUXHALL CDA CS","3036682","AB","-10.1","0","NA","7.2","0","-32.9","0","","","NA","9.5","1","NA","","3","","","NA","870.5","0.0"
"-112.122","50.183","VAUXHALL NORTH","3036690","AB","-14.2","29","-5.0","7.0","1","-34.0","1","21.0","1","NA","21.0","1","NA","","6","","","NA","64.3","0.0"
"-114.721","51.269","WILDCAT HILLS","3037550","AB","-8.7","0","NA","11.0","0","-34.0","0","13.0","0","NA","13.0","0","NA","20.0","3","","","NA","827.1","0.0"
"-112.117","49.500","WRENTHAM AGDM","3037675","AB","-7.0","0","NA","6.9","0","-29.1","0","","","NA","3.1","7","NA","","1","","","NA","775.3","0.0"
"-114.374","51.103","SPRINGBANK A","303F0PP","AB","-7.8","0","0.4","8.6","0","-33.4","0","15.6","0","123.0","15.6","0","158.0","8.0","6","","","NA","798.5","0.0"
"-113.961","50.729","OKOTOKS","303M9JM","AB","-7.5","0","0.6","9.5","0","-32.5","0","8.0","0","55.0","8.0","0","54.0","19.0","3","","","NA","790.1","0.0"
"-112.817","49.050","DEL BONITA AGDM","3042045","AB","-5.7","1","NA","10.9","1","-29.6","0","","","NA","8.5","5","NA","","3","","","NA","710.2","0.0"
"-110.371","49.581","EAGLE BUTTE","3042148","AB","-10.7","0","NA","12.4","0","-36.2","0","36.2","0","NA","36.2","0","NA","54.0","7","","","NA","889.6","0.0"
"-110.678","49.364","MANYBERRIES AGCM","3044203","AB","-12.0","1","NA","6.5","1","-36.1","0","","","NA","12.9","6","NA","","3","","","NA","900.3","0.0"
"-111.652","49.137","MASINASIN AGDM","3044232","AB","-5.9","0","NA","8.9","0","-30.0","0","","","NA","11.1","5","NA","","3","","","NA","741.0","0.0"
"-112.050","49.133","MILK RIVER","3044533","AB","-6.6","0","NA","9.9","0","-30.6","0","","","NA","7.8","0","NA","","3","","","NA","761.4","0.0"
"-112.538","49.284","MILK RIVER RIDGE RESERVOIR","3044545","AB","-4.7","2","NA","15.7","2","-28.9","0","","","NA","11.3","12","NA","","5","","","NA","658.1","0.0"
"-110.467","49.117","ONEFOUR CDA","3044923","AB","-9.4","0","NA","10.6","0","-30.7","0","","","NA","32.5","1","NA","","6","","","NA","849.9","0.0"
"-111.126","49.225","PAKOWKI LAKE AGCM","3045000","AB","-9.2","0","NA","6.2","0","-32.0","0","","","NA","3.3","12","NA","","1","","","NA","842.8","0.0"
"-115.552","51.193","BANFF CS","3050519","AB","-8.1","0","NA","6.6","0","-35.1","0","","","NA","15.6","0","NA","21.0","7","","","NA","809.5","0.0"
"-114.177","49.467","BEAVER MINES","3050600","AB","-3.4","1","1.3","16.5","1","-33.0","1","13.0","1","NA","14.4","1","NA","0.0","4","","","NA","641.4","0.0"
"-116.333","52.317","BIGHORN DAM","30506GN","AB","-6.1","1","1.1","13.0","0","-32.5","1","8.3","0","52.0","8.3","0","50.0","3.0","3","","","NA","723.8","0.0"
"-115.067","51.083","BOW VALLEY","3050778","AB","-5.8","0","NA","10.8","0","-33.5","0","","","NA","13.6","1","NA","","6","","","NA","737.6","0.0"
"-113.359","49.295","BULLHORN COULEE RESERVOIR","3050960","AB","-12.3","27","NA","1.9","27","-33.4","26","","","NA","5.9","29","NA","","1","","","NA","121.1","0.0"
"-114.482","49.628","CROWSNEST","3051R4R","AB","-5.3","2","NA","7.3","2","-31.9","1","","","NA","","","NA","","","","","NA","674.8","0.0"
"-118.030","52.926","JASPER WARDEN","3053536","AB","-9.3","0","NA","9.3","0","-35.4","0","","","NA","14.1","0","NA","17.0","5","","","NA","845.3","0.0"
"-115.035","51.028","KANANASKIS","3053600","AB","-5.4","0","0.7","11.0","0","-31.5","0","9.7","0","44.0","9.7","0","46.0","16.0","3","","","NA","724.4","0.0"
"-115.120","50.713","KANANASKIS POCATERRA","3053604","AB","-10.1","12","-0.4","8.0","12","-36.5","8","22.5","12","NA","22.5","12","NA","28.0","4","","","NA","533.3","0.0"
"-116.077","52.471","NORDEGG CS","3054843","AB","-7.3","0","NA","11.6","0","-31.8","0","26.0","22","NA","","","NA","26.0","","","","NA","783.2","0.0"
"-114.416","50.368","PEKISKO","3055119","AB","","","NA","","","-31.1","0","","","NA","","","NA","","","","","NA","",""
"-113.110","49.361","ST. MARY RESERVOIR","3056100","AB","-13.3","24","NA","7.1","21","-30.7","19","","","NA","1.5","27","NA","","1","","","NA","218.8","0.0"
"-113.809","49.131","WATERTON PARK GATE","3056214","AB","-3.6","0","NA","14.5","0","-35.3","0","","","NA","36.2","0","NA","","13","","","NA","669.4","0.0"
"-115.190","50.943","NAKISKA RIDGETOP","305MGFF","AB","-8.0","0","NA","12.3","0","-27.5","0","","","NA","","","NA","","","","","NA","805.3","0.0"
"-113.382","54.635","ATHABASCA AGCM","3060330","AB","-13.8","0","NA","13.3","0","-42.6","0","","","NA","11.3","6","NA","","4","","","NA","984.9","0.0"
